pokestop_id,enabled,latitude,longitude,last_modified,lure_expiration,active_pokemon_id
183430c55f5c4994852e7d69215fa5e9.16,1,19.41123,-99.100271,2016-07-24 19:14:44.736000,2016-07-24 19:17:44.697000,111
b19778c71340400899a898747ee70bc6.16,1,19.432632,-99.098408,2016-07-15 16:48:34.134000,,
660fa9b8dc604d1faf417d458f2d3668.16,1,19.434607,-99.097271,2016-07-17 19:05:44.882000,,
5f70ba2944ef4503a9cbd92f8e3d91f6.16,1,19.434743,-99.099982,2016-07-20 03:50:00.469000,,
f3fe0130a19b4dd4add0b9a3b592084d.16,1,19.432323,-99.097377,2016-07-01 01:55:22.434000,,
542c9d4f9d1e422592221dea36fedf50.16,1,19.432733,-99.095908,2016-07-24 14:02:16.603000,,
f97b2497771b409e84a300d7de9e855d.16,1,19.421212,-99.078002,2016-07-24 19:15:51.797000,2016-07-24 19:18:51.683000,52
07a3143e3f8648888968c791accf8c9f.16,1,19.415022,-99.071785,2016-07-22 20:28:50.924000,,
360a7274844c4006a388e3796a3ced1f.16,1,19.421656,-99.078499,2016-07-24 18:10:02.473000,,
16386398bbd54f268d77c0e548556162.12,1,19.416758,-99.073994,2016-07-22 07:22:51.870000,,
4232a7981cfa465a954a8ef9307bbe8a.16,1,19.421488,-99.077792,2016-07-24 16:22:07.836000,,
80cfafe804c24afab2a58fd7aa5ce957.16,1,19.41515,-99.071988,2016-07-22 01:48:34.517000,,
72d26502331343bfa1a0a4cc228e55b7.16,1,19.41595,-99.06847,2016-07-24 01:05:25.433000,,
9ea61e9be7e847eaa4634e327d779aad.16,1,19.420577,-99.077012,2016-07-24 04:11:19.818000,,
390b297bcbcd4e27adf235cf174e8772.16,1,19.417479,-99.078927,2016-07-01 01:55:22.434000,,
e9fd6bc5e6d2432184b4bd755b7d6dd7.16,1,19.422328,-99.0773,2016-07-24 16:42:03.706000,,
44c8596d3c844690a90f20a596218dfc.16,1,19.421024,-99.077296,2016-07-24 12:37:39.995000,,
3be9c16be49540b89ba89f78a1942791.16,1,19.415649,-99.072404,2016-07-24 04:06:23.753000,,
77fff60feaea490ba60a9988159291ff.16,1,19.413702,-99.06597,2016-07-22 00:42:33.791000,,
a501fccff9114096aa4d1de45b9a93cf.16,1,19.417123,-99.077461,2016-07-18 04:34:34.460000,,
e003e4bc1f9b4d11bfc632b6ace131b6.16,1,19.413039,-99.070551,2016-07-22 21:22:09.886000,,
174ff34582624f6e9341e9558708f091.16,1,19.421641,-99.079173,2016-07-24 19:14:53.890000,2016-07-24 19:17:53.852000,104
3d497d006e50404799841924ffd17359.16,1,19.41986,-99.092399,2016-07-23 23:36:24.197000,,
3c22ebe614f14dcda2116fa6e0ad2c52.16,1,19.422603,-99.100226,2016-07-23 04:53:39.381000,,
39ef3e8c2bdf47fe8a94ed114cd8ec1d.16,1,19.422221,-99.092691,2016-07-01 01:55:22.434000,,
63e9a472fc054c17a0953dac7a14ded3.16,1,19.41443,-99.093547,2016-07-24 16:45:04.525000,,
0c79a6e2820f40b3abab7425ba1d8ba7.16,1,19.412365,-99.094366,2016-07-22 00:58:57.050000,,
b4dc69b60814449185f51d354fa0bf1a.16,1,19.414733,-99.094402,2016-07-01 01:55:22.434000,,
e444de4e1dae4b6e9a4da82064b1eabd.16,1,19.419658,-99.101286,2016-07-24 04:13:05.845000,,
91cc0751e98c43de979547da9c5c2284.16,1,19.417068,-99.099298,2016-07-01 01:55:22.434000,,
321c17c27ffc499e84222110fd8bd753.16,1,19.412912,-99.094919,2016-07-24 00:19:31.199000,,
562e2bd832464c5e936b96afd17743ac.16,1,19.421497,-99.100013,2016-07-23 04:35:12.531000,,
bb959afd2fcf4ad18611f0eb8e4c6dfc.16,1,19.423083,-99.086226,2016-07-01 01:55:22.434000,,
2b4119ec59cd4b9689ac5b01eed2eb2b.16,1,19.438134,-99.200805,2016-07-24 04:24:45.468000,,
0ee0cc4231fa4407b4e4e30b503dee89.16,1,19.43811,-99.199929,2016-07-22 19:00:55.830000,,
30c0f9768e71401095ada91f34c2a22c.16,1,19.421187,-99.180868,2016-07-23 21:35:50.157000,,
ba5ec6fec1594042bd3f6ad3ab3fc492.16,1,19.42203,-99.179456,2016-07-24 19:13:13.067000,,
5f604f99a15a4b37a1b86730bf81d1a0.16,1,19.420116,-99.182695,2016-07-24 17:59:22.256000,,
77235723531c4cb5931dab8240b8083a.16,1,19.422095,-99.178361,2016-07-23 19:10:25.903000,,
a4066f6e691c40ae96ced199d5c3ed91.16,1,19.423071,-99.17619,2016-07-24 19:17:56.825000,,
ab079443481c4f6a871a7014b23b3998.16,1,19.4203,-99.181401,2016-07-24 21:25:04.330000,,
54bd8700d6a34a2a9cb126fa630a5df4.16,1,19.420399,-99.181689,2016-07-24 21:52:34.078000,2016-07-24 22:19:34.040000,74
61fc5d43725d4eda8cf03088a42a71e6.16,1,19.420887,-99.1755,2016-07-22 19:55:51.222000,,
859004e19cf446c0a413fb3ecee6723b.16,1,19.42737,-99.171055,2016-07-24 18:38:04.230000,,
8daf89b75c0f4daaa63e59d4cfd88e1e.16,1,19.422337,-99.177117,2016-07-24 20:09:41.221000,,
80e3122ba3c84b9ab47595189a444e16.16,1,19.420815,-99.176904,2016-07-23 14:51:50.440000,,
a361ef161b4f48fb89eed5ee153cf420.16,1,19.419752,-99.176105,2016-07-24 07:52:00.989000,,
5d4f35b3e059432c85a69817570d2b1b.16,1,19.422121,-99.180201,2016-07-22 12:49:51.446000,,
833ddd5339c64dac97543d61184eb86f.16,1,19.420349,-99.179248,2016-07-23 17:07:07.307000,,
59e88938c3e644a2805e63a0e778c0fc.16,1,19.41958,-99.183921,2016-07-20 02:33:39.433000,,
ead1bcc6011e483f9077b75891d0379a.16,1,19.419721,-99.174334,2016-07-23 13:33:46.781000,,
9514af9908c94832b7faf662ba74ec9a.16,1,19.419545,-99.178019,2016-07-23 16:29:33.037000,,
873e5572880a4438b31eeb9f7be5dafa.16,1,19.424078,-99.174837,2016-07-24 13:41:58.819000,,
21dde7d7a157446a9692ef9de6467624.16,1,19.428466,-99.178244,2016-07-23 20:31:10.042000,,
58f7629871764beaa50ee650cf07eacd.16,1,19.422079,-99.17649,2016-07-24 13:49:11.294000,,
434edf1909c04299b5d24a4c1032f79d.16,1,19.419392,-99.180508,2016-07-24 09:08:11.016000,,
34792644469a40a1abccc34b1f34d62b.16,1,19.429587,-99.178005,2016-07-23 20:25:18.527000,,
3a9c07709b0944c6aec4fc01b09a9b02.16,1,19.420447,-99.180556,2016-07-23 08:18:21.386000,,
bed184baae274d928168da8f6e5b3552.16,1,19.419827,-99.183739,2016-07-20 02:31:20.009000,,
3069bc2ff28241c98ff3d5bc3cd1c013.16,1,19.421508,-99.176987,2016-07-24 21:24:52.242000,,
0b9af07da31e499d8a98054e7c28cdb5.16,1,19.42112,-99.179579,2016-07-24 22:05:47.783000,2016-07-24 22:20:47.695000,74
a596814f7e4c4bd2ba514feb8521d642.16,1,19.421058,-99.173431,2016-07-01 01:56:21.696000,,
fef7c6bfa98c41f586a22af25f77af1e.11,1,19.421206,-99.176483,2016-07-24 14:26:25.931000,,
6fe6220f60814287af5c4407477c55ab.16,1,19.421827,-99.181912,2016-07-24 18:46:10.232000,,
4babd07ce2174cf9a996fade0cb036dd.16,1,19.419998,-99.183048,2016-07-24 18:00:10.539000,,
1f50dbaa13494935aad4ab97a80eb615.16,1,19.424886,-99.17864,2016-07-24 20:25:48.114000,,
2fe8a4199ac345248551acba2f742dcf.16,1,19.423474,-99.173957,2016-07-24 20:15:16.078000,,
686d283eb9e24b60b15f7d556d2f4aa9.16,1,19.419627,-99.181049,2016-07-24 19:38:20.155000,,
f82d05590b884e85ae5695237b3b5c80.11,1,19.42147,-99.179406,2016-07-24 20:38:14.435000,,
b3060ac6782746daaa182e4619a0070f.16,1,19.42285,-99.174932,2016-07-24 00:04:34.523000,,
427078afeede4ff195467ffd12054090.16,1,19.421413,-99.178535,2016-07-23 19:50:33.650000,,
431950baf784424ca57c376bc41d0895.16,1,19.422551,-99.177402,2016-07-23 15:10:44.975000,,
749ef5952b35492b887a5ff02cb0984e.16,1,19.423486,-99.17879,2016-07-01 01:56:21.696000,,
ed056a0386234353adc7a651975f11b4.16,1,19.424673,-99.173612,2016-07-21 20:24:27.246000,,
5db638f3e9f0433dbe49fc4ebf767bd6.16,1,19.425348,-99.177185,2016-07-24 16:30:59.160000,,
90f8c9916a84422d8b7a682ce5cbf695.11,1,19.42867,-99.173828,2016-07-21 22:09:20.336000,,
acef90e46dbd4f7a88b4c6e84f348204.16,1,19.424085,-99.174446,2016-07-24 20:47:06.890000,,
f7dda16427d84bc8801899710d17b5fa.16,1,19.429356,-99.173193,2016-07-24 18:25:12.736000,,
958a1a23bcb241748b995e7fc712394c.16,1,19.422046,-99.175875,2016-07-21 19:57:52.937000,,
0578edc9e10a4e6e8866c317dfae3936.16,1,19.420752,-99.18105,2016-07-23 17:37:33.049000,,
fca54c0afc4944c58ecb72386a4c0866.16,1,19.420801,-99.17627,2016-07-22 15:51:40.757000,,
13d4c5ea51cf4ba2ac32aca6949ba9e2.16,1,19.425949,-99.171051,2016-07-24 18:28:49.164000,,
f69f5dfcef284c6290b7415458140f55.16,1,19.423803,-99.1753,2016-07-24 13:50:50.854000,,
3694a21669564661bea13979ab5b0f64.16,1,19.425584,-99.17222,2016-07-24 18:08:41.730000,,
e6af6ce72d5141e3828649dd1f4c744e.16,1,19.425076,-99.178067,2016-07-24 12:40:12.223000,,
cc7c54a72fa04e03939282b3e7d90473.16,1,19.42004,-99.179789,2016-07-23 16:39:25.494000,,
5de272b1700749e0919b39c9e7877793.16,1,19.428593,-99.173141,2016-07-19 23:52:43.424000,,
edf4bb549dba4b7693642d27372b453e.16,1,19.42157,-99.18146,2016-07-24 19:00:48.468000,,
622ecc16bcbe4786be94fd4fad98ef44.16,1,19.427002,-99.17759,2016-07-23 06:26:56.951000,,
a879714e288847aba77ac0e4f0e281d6.16,1,19.42981,-99.174656,2016-07-23 05:14:15.104000,,
b57dcbc63dfd40208b4b08219f6caa7f.16,1,19.427836,-99.178395,2016-07-23 03:13:14.825000,,
65f5508c346242318c711ab302f233ed.16,1,19.422266,-99.175057,2016-07-22 15:12:44.102000,,
e5150e7352f9474badc4ed59af46c16a.16,1,19.423154,-99.176198,2016-07-24 19:19:45.126000,,
181966d68d714e30b1e61fb15a85e333.16,1,19.420809,-99.178474,2016-07-24 19:24:37.424000,,
40a1a0f1d0d74eefad8489f3a323820c.16,1,19.404205,-99.189633,2016-07-01 01:56:21.697000,,
903bc869fa5f43b8b308722381e83e7c.16,1,19.396778,-99.185028,2016-07-23 17:49:30.047000,,
3b1d070a85a04ed29492315f9d684468.16,1,19.39957,-99.185737,2016-07-24 09:50:39.918000,,
c37f4f51dc824693a5cb8a19b5d26ec8.16,1,19.396747,-99.189255,2016-07-23 19:14:44.567000,,
09d19ac0317f47d3be07c716698efd21.16,1,19.406049,-99.189755,2016-07-24 17:29:00.494000,,
eb727ceb255444039b82a779f61e1213.16,1,19.406503,-99.184687,2016-07-24 00:43:40.690000,,
80a424b3e6434f02a8b11a3f530332a8.16,1,19.402737,-99.188312,2016-07-01 01:56:21.697000,,
2be10242c3684c2088a21e970a34ccfb.16,1,19.397627,-99.188726,2016-07-24 22:16:21.461000,2016-07-24 22:19:21.422000,58
14be21f4db884c5d9494aa3070506867.16,1,19.407908,-99.187868,2016-07-24 20:40:01.536000,,
26c207c027d548d4a6025cc76f9e494d.11,1,19.407221,-99.184461,2016-07-24 20:46:10.797000,,
af6c2927a8064c1ca832bba68acd0d70.16,1,19.402144,-99.18841,2016-07-24 18:12:31.613000,,
e3df690688be4ce69a16ace0dd187916.16,1,19.405344,-99.189202,2016-07-20 02:50:01.225000,,
4f9f53fbce1a47758418b813c9bd3874.16,1,19.40731,-99.189799,2016-07-23 19:41:37.595000,,
61e93be42fb244caa0c9a269c3a4fc86.16,1,19.406337,-99.189816,2016-07-24 17:51:52.724000,,
43bf042e78da4cbe88bfef898781254d.16,1,19.407118,-99.186968,2016-07-22 03:01:51.502000,,
1652fb8e004f49fdb6c10dcc5e15b1f8.16,1,19.407175,-99.185102,2016-07-24 19:48:28.823000,,
e25a2cb93a514feb95fb02b12e7b37d2.16,1,19.4125,-99.188482,2016-07-24 20:28:42.716000,,
0ebe252951c84c799422a62586506591.16,1,19.401345,-99.185578,2016-07-24 20:14:29.815000,,
c2e529ea30f1459aa1b2079771b6bd75.16,1,19.400796,-99.184993,2016-07-24 02:02:20.349000,,
d46b46b9940e41f9a16a075107919279.16,1,19.39601,-99.189493,2016-07-01 01:56:21.698000,,
6b565264b52540b78a716cc426f4f8a8.16,1,19.406649,-99.186044,2016-07-17 04:49:59.127000,,
14ba44e3f59f4d7f81ecfc24582e1042.16,1,19.39578,-99.189411,2016-07-01 01:56:21.698000,,
5cd7cce1c2f84aedbe2f717525354664.16,1,19.405608,-99.188693,2016-07-22 21:45:37.630000,,
06374ac7049541aea26c006493dd226c.16,1,19.407849,-99.188797,2016-07-24 19:47:11.470000,,
7929cb026de8400a83b747820a23486d.16,1,19.407535,-99.187839,2016-07-24 19:42:39.144000,,
924fb0e980174a93b7f574507bfd9926.16,1,19.399482,-99.188145,2016-07-20 18:21:26.907000,,
712cc36134eb4bb7a61e5372f4030386.16,1,19.405606,-99.188207,2016-07-20 00:57:56.528000,,
8955a97f92f149389e3b223e6889e516.16,1,19.405802,-99.186582,2016-07-14 14:31:37.573000,,
f44441aa7d8b4f7ab2d77a1098f0121c.16,1,19.401057,-99.185257,2016-07-24 20:16:28.711000,,
c587a6bc41984667ae89fef4b6573ee7.16,1,19.405392,-99.185802,2016-07-21 17:11:10.960000,,
6e44cb31800f4acbb196c71b91e11bfd.16,1,19.401895,-99.188701,2016-07-17 22:12:18.553000,,
61323e2d74974281bff69f9c1ed9e7a5.16,1,19.405065,-99.18719,2016-07-24 21:01:13.929000,,
e3790c02277947978c098824c68f1a2c.16,1,19.407106,-99.187214,2016-07-23 03:06:11.520000,,
95385e94370e414696f8bf52cf51babc.16,1,19.407645,-99.187416,2016-07-24 20:40:01.174000,,
7b41dfe2dbe94d07a24571d6b263d454.16,1,19.407897,-99.18957,2016-07-24 02:46:26.751000,,
d5028b15b3804d918a21e630483ffc9e.16,1,19.402983,-99.184811,2016-07-24 18:14:12.605000,,
462c87590e4c40c4a7db2527fa57a430.16,1,19.40094,-99.183312,2016-07-10 20:42:14.961000,,
c71b6fe4735f456dbe363688df860aa6.16,1,19.406954,-99.189033,2016-07-22 15:04:18.488000,,
41c5ad8b68724a0ea732cb539430a832.16,1,19.401308,-99.199464,2016-07-17 00:22:25.510000,,
475ba9399d42455c9c86fbc41d70f13a.16,1,19.400707,-99.200262,2016-07-20 04:50:04.859000,,
374b1daceac744569680d59c4c5151e8.16,1,19.408379,-99.202845,2016-07-24 20:21:32.433000,,
6d081ffbbe134b669d4fed9ff1159c31.12,1,19.410118,-99.20208,2016-07-23 01:23:36.740000,,
8b9fb188ca364c3287096ab1d6142970.16,1,19.406795,-99.20413,2016-07-16 07:04:34.641000,,
a7e624f5c5f2472a81139269321a46ea.16,1,19.406783,-99.204586,2016-07-22 06:03:15.185000,,
3eeeff81614f4a7cbd9782c129e538d6.16,1,19.41096,-99.201556,2016-07-24 19:03:00.685000,,
f10daf1afbd44561a198a865e061090d.16,1,19.407026,-99.204082,2016-07-13 22:15:32.091000,,
a1bd0b19ccf143f9b0f70abe0b059b31.16,1,19.435465,-99.196494,2016-07-19 06:56:04.365000,,
65ed66a2d0c04371b05e2ba7dbb7449a.16,1,19.43425,-99.195505,2016-07-01 01:54:01.009000,,
91881ca53b3f4d8a8b98c46cc4f7d7b5.16,1,19.437964,-99.196187,2016-07-22 23:48:22.931000,,
3c870e9920ab4d3f91f04212aa3ea603.16,1,19.433995,-99.197487,2016-07-24 06:12:47.128000,,
0c8a499495414717b9a52377f65bf2bd.16,1,19.438321,-99.195901,2016-07-01 01:54:01.010000,,
f7c8d615385e4dc48b5983988eb9da8f.16,1,19.437513,-99.197209,2016-07-23 03:06:08.901000,,
357c0c31c40a4684897e7f447deee5f7.16,1,19.435767,-99.198096,2016-07-21 00:11:20.983000,,
f67ad2f9dbed4912bfef78f4d1503e17.16,1,19.438705,-99.196342,2016-07-22 17:52:50.552000,,
1c34df5747b142e3bedfec5ec6817641.16,1,19.433778,-99.198936,2016-07-01 01:54:01.009000,,
1e43bc8018944aaf8c7224acd812c241.16,1,19.438434,-99.19723,2016-07-01 01:54:01.010000,,
5e4b13514a534775ace2dda482d985e9.16,1,19.438054,-99.197633,2016-07-23 01:13:55.714000,,
7415c521ba894d93ad6adbf1f9724943.16,1,19.436725,-99.196353,2016-07-23 21:40:41.845000,,
79703f009f504b808841a770cadc0537.16,1,19.435826,-99.198995,2016-07-24 03:34:19.929000,,
ddbfd1368c21467a815af964eb0fefff.16,1,19.4387,-99.195879,2016-07-24 14:14:16.827000,,
89e0ba5f90fa4187ab4e446aeb038806.16,1,19.433894,-99.195684,2016-07-23 15:16:05.990000,,
8d1a80acc7944ce88c202e3dedac4fda.16,1,19.436007,-99.196908,2016-07-22 07:01:28.359000,,
d519f39179f44da5a72245e26373f355.16,1,19.434413,-99.196476,2016-07-24 06:01:21.284000,,
ed7aa183d86d4baead29b371c7ea8f99.16,1,19.435842,-99.199778,2016-07-23 23:18:01.641000,,
63ac5c22620d4b7084b9de12467fd4d8.16,1,19.433904,-99.196423,2016-07-24 18:57:56.804000,,
e5943041f23c4dd1a047176d9b696c76.16,1,19.434158,-99.199813,2016-07-23 20:11:30.123000,,
606f77c7f6604a91900a9d5252b4812a.16,1,19.409767,-99.183731,2016-07-24 03:16:46.451000,,
20a6afed48834b1bab9137b3973e5042.16,1,19.409424,-99.186267,2016-07-22 04:52:02.244000,,
24e729795dd34b90af5cfb00c9c52156.16,1,19.407569,-99.183528,2016-07-01 01:56:21.694000,,
dacb7c29172741fabc8421f5276fcae6.16,1,19.407449,-99.184599,2016-07-19 17:43:11.209000,,
dec15af560c2415682d7c59053ae9508.16,1,19.407752,-99.186568,2016-07-23 23:23:06.751000,,
a9c1c56cc4f94463a475bbdfec3ec9af.16,1,19.407491,-99.181747,2016-07-22 21:30:25.771000,,
4ba1cc9340b94a6aace911e15e7d0b05.16,1,19.408139,-99.181698,2016-07-15 15:10:22.216000,,
71aaa8f4b4064d1684a941aa20927638.16,1,19.407384,-99.186077,2016-07-21 13:40:52.218000,,
fafa303d1ebc4348bb290b95529efcf2.16,1,19.407746,-99.185685,2016-07-23 02:39:19.336000,,
162e1221fdef44509c7065bbcb25292c.16,1,19.41249,-99.185097,2016-07-17 22:39:00.319000,,
be64fe432f624c5fab17b8fb9b10ba60.16,1,19.412776,-99.185975,2016-07-12 19:28:46.182000,,
8a4a3548672d48cea3b681c283f81faf.16,1,19.409023,-99.181335,2016-07-20 13:47:09.907000,,
149e58aeeef94ee0b53f0b022ec40776.16,1,19.408167,-99.178939,2016-07-24 17:14:23.569000,,
ff9bdd6f8d9248f684c37882713da0de.16,1,19.412005,-99.181334,2016-07-01 01:56:21.694000,,
83dc6710b2f642518fb239dba90cb8bc.16,1,19.407512,-99.180432,2016-07-23 03:32:17.755000,,
8be4939addf14cc59aadcdf1fba11d95.16,1,19.408254,-99.180227,2016-07-23 02:58:47.519000,,
1ae0af64bddc454b8dc180f905b74971.16,1,19.412012,-99.179393,2016-07-24 02:30:34.619000,,
d54796b1e5d94621b24ef442ffe13f9c.16,1,19.412913,-99.180049,2016-07-22 21:55:42.386000,,
9c2b1353da02400e84332c8dc9256408.16,1,19.412167,-99.180664,2016-07-23 15:08:53.544000,,
3845e53cc22547418da0f430f22d5998.16,1,19.410343,-99.180474,2016-07-23 20:28:44.983000,,
3250e537e8dd4e26afe6f68c04ef86be.16,1,19.409163,-99.180791,2016-07-15 00:24:36.629000,,
8d1bae44cb0a4f85b0f422a0e98f9982.16,1,19.41135,-99.181511,2016-07-23 16:11:37.924000,,
cf218621678f4599b1cbfe8152203d4b.16,1,19.412957,-99.181587,2016-07-21 23:35:56.515000,,
ed7a877e4ff947db81848b0385e02dfd.16,1,19.408032,-99.181129,2016-07-15 16:19:02.081000,,
b2f6547cb40c45258603886307855029.16,1,19.40844,-99.195913,2016-07-01 01:58:06.670000,,
96b43d4ff0544749850a8f98cd3b2bba.16,1,19.405088,-99.190086,2016-07-14 02:34:04.184000,,
12a1cc6a18324f71bd1879224fb59d61.16,1,19.406154,-99.190531,2016-07-21 17:37:03.895000,,
491b63d1ba6f44348e93e2442de1b754.16,1,19.407589,-99.190434,2016-07-24 13:18:30.259000,,
39cea8ad5d15453689e594cd2a68621a.16,1,19.410965,-99.195778,2016-07-24 13:52:16.144000,,
11e038d4bbfe4c5f992d521b6d4ffa1e.16,1,19.412012,-99.196358,2016-07-20 18:20:36.458000,,
a564bee670f948d48818ef11276ff350.16,1,19.413267,-99.196298,2016-07-24 20:47:27.100000,,
5169f00b29d84d4a8a43320c4cd7b76a.12,1,19.411061,-99.192431,2016-07-21 21:25:02.483000,,
ba1a417f2509412ba456e8d8cb0d0cd8.16,1,19.408198,-99.192748,2016-07-24 06:30:55.841000,,
171d8d6f06b045fb9742d65a82d0fded.16,1,19.410576,-99.190739,2016-07-23 14:21:28.737000,,
52a65cfd38ba4470a83e84256767390e.16,1,19.416602,-99.197524,2016-07-24 22:15:47.308000,2016-07-24 22:21:47.273000,19
40deb585b83b4efd86eceabe7b8f171a.16,1,19.414716,-99.195815,2016-07-24 11:07:13.137000,,
52eb6569a4d34b13b4dfc57cdee25d51.16,1,19.411421,-99.191121,2016-07-19 21:27:16.262000,,
488fc5afe7694e429c4ae10793aea18c.16,1,19.406451,-99.190766,2016-07-23 01:30:29.623000,,
f82ba0b4f8404678bbf074a70a0c919d.16,1,19.410654,-99.19129,2016-07-23 14:54:27.297000,,
cb7978efc17046d18787eb0c7a6a3ab2.16,1,19.413622,-99.197545,2016-07-17 17:13:13.534000,,
9d550662dbda4ecd856c800ff62083a7.16,1,19.41672,-99.200436,2016-07-24 16:29:09.961000,,
ed1343648ecf402092455515a166a8c0.16,1,19.413476,-99.195809,2016-07-24 20:46:15.488000,,
adf9aef82c154cfbabae5c715f2a68f8.16,1,19.416597,-99.197295,2016-07-24 22:15:46.972000,2016-07-24 22:21:46.849000,74
ca622a0716874f678a38f5198afaa5c1.16,1,19.41355,-99.196348,2016-07-24 19:49:59.085000,,
abfb8d63ecdf4dc086730f4fbbc3da0c.16,1,19.416811,-99.200027,2016-07-24 19:56:14.483000,,
1dc343c848054aef94cf66f89f55b659.16,1,19.407907,-99.192209,2016-07-22 21:20:02.606000,,
f65de64d1ef344f0814a68c3b6b554b0.16,1,19.402032,-99.19207,2016-07-01 01:58:06.667000,,
98f7700efb5c4707900179d08d5fb1d2.16,1,19.404919,-99.19647,2016-07-23 23:36:09.031000,,
b9c2661d96f54db792f4b2c0c6df6ce9.16,1,19.414513,-99.199423,2016-07-23 15:54:20.958000,,
1ae27ebe42ee4112858ba2add149d49e.16,1,19.412126,-99.197366,2016-07-22 00:15:42.922000,,
d2c8062d510f448d93b002a7bfa719b1.16,1,19.411998,-99.195013,2016-07-23 21:50:21.298000,,
ce61b7a2599046be8b381ff19b630972.16,1,19.408418,-99.193894,2016-07-01 01:58:06.669000,,
059cfe6e9cb3438d833aea6a6b0d32d2.16,1,19.413124,-99.194637,2016-07-23 14:23:35.137000,,
caf2222ca16d417ca32808dddf958d29.16,1,19.411787,-99.195268,2016-07-23 21:50:21.883000,,
90ecb1b2d54340d581be7eaba83fb7b8.16,1,19.414309,-99.197512,2016-07-24 16:30:17.376000,,
0870b43be4004caeaf3f56e81c5ee376.16,1,19.411876,-99.191584,2016-07-24 14:22:51.658000,,
f1a6296fb89e4b27862bb3194c94233b.12,1,19.418385,-99.193497,2016-07-24 16:54:02.980000,,
727b141cb67140f3a25d832aee85d2a6.16,1,19.412858,-99.197989,2016-07-23 19:17:44.679000,,
89a86b3d661b4c02b67be08a429a41b5.12,1,19.414227,-99.194549,2016-07-24 18:09:48.191000,,
3a9d9520a6bd4b40954e867922af637a.16,1,19.409211,-99.196681,2016-07-23 04:28:08.415000,,
e0fa491d49f64396bd549a90e2bac238.16,1,19.416059,-99.197842,2016-07-24 18:11:48.316000,,
5a982bca0368462480cd487095ced683.16,1,19.407612,-99.190666,2016-07-24 13:18:21.022000,,
c2d990a49cd74a5baa32263a341e0d5e.16,1,19.407693,-99.191128,2016-07-21 03:43:02.209000,,
49565e5132864a2d9fdb1fc9fde05778.16,1,19.40793,-99.191741,2016-07-01 01:58:06.669000,,
72cff5cca8f34ecf8c3e6e2f0151242d.11,1,19.404264,-99.191774,2016-07-01 01:58:06.667000,,
34f9aca5d47c45ce844fa29c5657ba0d.16,1,19.408368,-99.194719,2016-07-22 19:34:50.740000,,
76f48f7b14344b328303e050581f60be.11,1,19.403509,-99.195301,2016-07-01 01:58:06.667000,,
71be9c22a54c42359c7e29bad6b92e31.16,1,19.41734,-99.196654,2016-07-24 20:18:31.147000,,
01b5d9aef53a4bdeb93da313876d7842.16,1,19.415868,-99.198268,2016-07-24 21:19:02.254000,,
62b8ab9b36974fe59e7d381603f98911.16,1,19.404715,-99.190035,2016-07-01 01:58:06.667000,,
65f32773d10143f887a60bd9570dd4a0.16,1,19.410547,-99.196465,2016-07-01 01:58:06.670000,,
bdcba0e580e84a2ea926ea8cac5df94a.16,1,19.415147,-99.196229,2016-07-24 20:13:32.808000,,
c001d2b8f6fe4f1984a69ae2656e4d36.16,1,19.414842,-99.198734,2016-07-24 18:33:04.378000,,
e7fccff214214d5fb3920c6a394f4a38.16,1,19.404916,-99.190662,2016-07-13 22:06:59.018000,,
9bb846e6311d4e77a00a1fecfbf43278.16,1,19.412565,-99.197086,2016-07-24 12:57:22.536000,,
79fef2541cfb4580a1d3a10a369ed66c.16,1,19.412126,-99.194604,2016-07-24 16:09:42.536000,,
85b9258a2e214fe4872a0c619e538ae1.16,1,19.417151,-99.197043,2016-07-24 20:40:06.951000,,
3b5686b3c669494e8a72dd12f7b2a49d.16,1,19.410409,-99.197497,2016-07-15 12:24:37,,
6c6c946374de4d049657ec424ea5f544.16,1,19.41106,-99.19544,2016-07-24 13:52:09.229000,,
0b02199531384bd5819ec0f6c58321c9.16,1,19.417968,-99.189929,2016-07-21 23:07:40.644000,,
05994347bc164088a1cdcf4bc0263aab.16,1,19.411607,-99.196669,2016-07-22 20:29:40.811000,,
e138dd391e624086a8ba7b1fb2d8dcd9.16,1,19.41463,-99.197918,2016-07-24 19:26:45.977000,,
d9172d70966143d7b6517d7ad9a9674e.16,1,19.418005,-99.199481,2016-07-24 21:17:50.318000,,
020a74da198b47a984f7b69ce120f020.12,1,19.411777,-99.198239,2016-07-24 22:00:52.518000,2016-07-24 22:21:52.478000,23
141bf63145e74402b9fdf3734aed16a2.16,1,19.411468,-99.194269,2016-07-10 22:44:01.875000,,
09e64f9afff64fc290e7302eb0e5f8ef.16,1,19.41133,-99.195741,2016-07-23 23:01:27.849000,,
fee18f4e24374713848050acf0991190.16,1,19.421648,-99.191984,2016-07-23 16:22:30.972000,,
13a0d39d723a47f1a7ee0f834b086ba4.16,1,19.420925,-99.190939,2016-07-24 16:42:14.138000,,
1e5b13dac76e4067ac3dbd64b6e0c6b1.16,1,19.431308,-99.193617,2016-07-23 06:05:48.506000,,
782ce31561b740a992616fff185ea9c9.16,1,19.435458,-99.192845,2016-07-22 03:47:43.405000,,
cfe8e0756f754766b801633032986306.16,1,19.418546,-99.195826,2016-07-01 01:58:06.669000,,
432d39506dd24302930648573b4eb604.16,1,19.435795,-99.192453,2016-07-24 19:24:00.998000,,
ac53ddf11f0c4274ae606b07081b4896.16,1,19.430832,-99.199987,2016-07-22 17:19:07.659000,,
ae5d701ad9254a83b3ae57120f0a092c.11,1,19.425375,-99.191695,2016-07-23 17:54:55.684000,,
3ae76c794ed44195a3e9dee2b40d7288.16,1,19.433663,-99.191479,2016-07-23 22:29:26.609000,,
20080ea19c6c4316bb66d3ae2e20084b.16,1,19.431181,-99.200595,2016-07-24 16:37:02.401000,,
37dc688aa40446938b1de29a10c0b68a.16,1,19.424868,-99.190275,2016-07-21 21:37:02.619000,,
dc9c6bcd3b8a43dbb73ac0954715b4ce.16,1,19.431624,-99.196962,2016-07-24 18:30:47.059000,,
2dcd853ad55c435e9af73b1343882dbd.16,1,19.421896,-99.190194,2016-07-17 03:49:08.072000,,
2c8d52fedbeb4346ae7cc67b061e25a8.16,1,19.430404,-99.199934,2016-07-24 17:49:39.210000,,
e2b1268655aa48b590557e8d3aada7de.16,1,19.433653,-99.190043,2016-07-24 19:56:43.906000,,
df42e44c410840928cdd8a76651fa66a.16,1,19.423326,-99.190361,2016-07-22 21:36:17.894000,,
1e1c39bc1a33487a8ece1168cb8b12a9.16,1,19.423769,-99.194961,2016-07-21 19:08:12.014000,,
85ad263af77d4cc3b5b196bf3d6490d5.16,1,19.43057,-99.195848,2016-07-24 21:42:25.257000,,
27d3d40031aa49ca81bc9d1f62d3ef29.16,1,19.433912,-99.19369,2016-07-01 01:54:01.009000,,
2b12160fafcd47639b120c630db93736.16,1,19.42736,-99.195342,2016-07-23 16:34:55.718000,,
91bea6991c14422c87122680600e7233.16,1,19.431948,-99.198437,2016-07-23 05:54:19.242000,,
84aff02ef3124eb6b914cb749f79930c.16,1,19.423434,-99.194679,2016-07-16 01:46:46.764000,,
ada1f76d3e2b4540b33c3f8e3ae1a49e.16,1,19.427495,-99.194294,2016-07-23 15:35:32.596000,,
d5b141b559ba4778817a133176d4dc30.16,1,19.42616,-99.191703,2016-07-22 23:37:23.391000,,
d0c33720533243508c9501abcb62068b.16,1,19.429246,-99.195397,2016-07-24 20:53:12.024000,,
4e01db71a5de4b1e810f5054e3187566.16,1,19.428017,-99.193754,2016-07-24 21:12:34.813000,,
abe9fad27827419192709881aa06045e.16,1,19.423906,-99.192005,2016-07-24 16:35:43.444000,,
3a9f845b5ba044dd94667edd1767a45b.16,1,19.420561,-99.199961,2016-07-24 20:00:45.501000,,
a6d6b8651ff74e93bc0636054d102e55.16,1,19.431813,-99.196171,2016-07-24 21:28:47.704000,,
fdc9fe51ee20435387b30322d37812ba.16,1,19.423086,-99.192098,2016-07-19 06:31:47.071000,,
8ffc2b55a5914dddb273bcfe76dfe435.16,1,19.423061,-99.195627,2016-07-01 01:58:06.668000,,
e05be0b7818d4190b861073da98f5e33.16,1,19.42805,-99.191447,2016-07-22 23:11:31.369000,,
091d7b733e6643e7b352c338e7fefdc2.11,1,19.426064,-99.192161,2016-07-24 05:10:21.854000,,
35d43f2ae79844d28ea4426fcd632ab5.16,1,19.426979,-99.192311,2016-07-24 03:52:27.359000,,
179312f8b51949789a3c56cd18016e78.16,1,19.429077,-99.191954,2016-07-24 20:45:38.207000,,
f4ee976707ec49d1a768df97d70371dc.16,1,19.433663,-99.195276,2016-07-24 16:48:59.276000,,
8beb911ef7994f79a84af78cf0422e0d.16,1,19.420896,-99.190244,2016-07-24 21:02:16.186000,,
570a92de5a3648b398f4591cf83c241e.16,1,19.430458,-99.1936,2016-07-01 01:54:01.009000,,
20936e38961c409ca77b9d7f285e5148.16,1,19.426927,-99.195334,2016-07-22 20:59:58.257000,,
4d21368efad54f67bb49652ba2713b4f.16,1,19.430834,-99.197162,2016-07-24 20:28:07.395000,,
503b55224b7845818429d3fd0085b273.16,1,19.428733,-99.190888,2016-07-23 21:15:04.016000,,
c95cb64c135948bc980a390800ff93c6.16,1,19.435532,-99.192579,2016-07-24 00:18:10.672000,,
5ff5bac50ed3488890601e9bc8434b63.16,1,19.426815,-99.193572,2016-07-24 21:27:15.273000,,
77e32f1e76744d8bbad34a347f8f241c.16,1,19.423363,-99.196612,2016-07-01 01:58:06.668000,,
cbf1c8a89c3146c395a5a9451f8fd480.16,1,19.428699,-99.191735,2016-07-23 02:57:39.717000,,
16ad33513cec443bb096f3034705790d.16,1,19.430263,-99.198752,2016-07-23 07:11:51.540000,,
49fb650e0ee64750beb6fd717d3cfafe.16,1,19.427393,-99.193284,2016-07-23 05:32:08.607000,,
4ed0da4abbd74f6e9c39888653eb5c84.16,1,19.425466,-99.191249,2016-07-22 18:27:36.923000,,
bf91d229ca2c40f484df1a07d53a09de.16,1,19.431875,-99.200035,2016-07-01 01:54:01.009000,,
786fcc0133764ad2be56b338b29bd474.16,1,19.425788,-99.194766,2016-07-24 19:08:07.681000,,
e3558e7061474ea49fb9b9d2c5bc9d75.16,1,19.42775,-99.193334,2016-07-24 22:17:40.816000,2016-07-24 22:20:40.717000,81
39d6369fbff848ec8aa8193699a88717.16,1,19.425514,-99.193832,2016-07-23 01:27:13.406000,,
369b89996d274f7799f0adb9c9dd7c6c.16,1,19.431662,-99.190819,2016-07-24 21:57:07.916000,2016-07-24 22:21:07.878000,23
cc0132e2c8b7477b95fbd8a0f4ce6193.16,1,19.423683,-99.195452,2016-07-23 23:09:37.741000,,
360b0703ef1b4a26ade5560f6ec173c5.16,1,19.420213,-99.200623,2016-07-21 06:58:37.188000,,
c0389c4f03e244f8a76a8239be98e264.16,1,19.421055,-99.197884,2016-07-22 19:15:32.478000,,
d395df9cfacc453e872777b41cd2b7f1.16,1,19.433704,-99.192425,2016-07-24 22:15:40.804000,2016-07-24 22:21:40.726000,74
944db62b493043fe96d128921a5e4eff.16,1,19.420268,-99.196156,2016-07-01 01:58:06.669000,,
40e9abc779d8498d91acc97122652f4f.16,1,19.434399,-99.193354,2016-07-22 17:06:05.794000,,
1a3f4b315e554771b787fbc87b3bc1dd.16,1,19.425283,-99.194506,2016-07-24 21:44:33.364000,,
79572fc4ce0a4cd9aad1a6bc63517c95.16,1,19.422404,-99.191038,2016-07-24 21:03:51.756000,,
aad3db7459f746caa0c4195fdb7d9d93.16,1,19.430662,-99.196554,2016-07-24 21:58:38.760000,2016-07-24 22:19:38.724000,77
025ddc84e8f949b2ae94d9d2e653a1df.16,1,19.431457,-99.197738,2016-07-24 02:46:31.362000,,
f002b783c161427d8e4c157fca6b3749.16,1,19.434029,-99.194955,2016-07-19 18:43:11.225000,,
641a277698564611bf36e0892708c371.16,1,19.431326,-99.196785,2016-07-24 20:50:28.383000,,
dbe06bc66a6546e1b56ebf5eea63263f.16,1,19.422679,-99.190089,2016-07-01 01:58:06.669000,,
13038a5a24e043a79298df017e1d6c9e.16,1,19.430017,-99.193671,2016-07-24 00:57:03.289000,,
113d3bcf8e594446b71f0848c36ab3d4.16,1,19.428846,-99.19415,2016-07-24 01:21:50.454000,,
b5680397044f491cb3c79dd13e72717e.16,1,19.433706,-99.193295,2016-07-23 15:06:10.113000,,
93f3150b10ff44d3937458dd691ec850.16,1,19.421424,-99.192098,2016-07-01 01:58:06.669000,,
c0501216ab894365a4dc2fd432c86037.16,1,19.431949,-99.197472,2016-07-23 03:33:19.305000,,
249ef485fc9343ef94a64b980695b064.16,1,19.421017,-99.190425,2016-07-24 19:55:06.355000,,
66af3abc3a8947d989e84dba6076cc43.16,1,19.428515,-99.19027,2016-07-24 02:47:22.869000,,
c3851ca56c12432e999f3b5afe4e22ee.12,1,19.424155,-99.194337,2016-07-12 06:38:43.896000,,
73a7d39ecb3e4c0f88d750b0a40bf75e.16,1,19.425713,-99.189982,2016-07-24 20:18:17.490000,,
34049e3a1e274b5ebfe32a7e80ee06cd.16,1,19.425131,-99.194298,2016-07-24 02:16:27.570000,,
fd133e055b2641a796973bbe3e621482.16,1,19.431512,-99.195933,2016-07-24 17:03:48.107000,,
47024f6df6244713a2a45a66eef1fd8a.16,1,19.428696,-99.193139,2016-07-24 16:06:57.523000,,
05756874496e4d588d24519253b87bdb.16,1,19.429614,-99.19539,2016-07-24 19:54:27.250000,,
8810911d81e24aff8a879fe03f088222.16,1,19.435579,-99.193282,2016-07-24 20:44:17.630000,,
015b065984ca4094afd01b595e1c79a0.16,1,19.425457,-99.192364,2016-07-23 21:59:18.730000,,
c3bc5f267e8b41b49e6ba1c3052ef60e.16,1,19.420963,-99.191528,2016-07-24 10:31:22.123000,,
e292f1ad599741798bc2c997c8d866a5.16,1,19.424246,-99.182052,2016-07-24 12:21:05.726000,,
5434018967ad4cc882ffd23d61d1764e.16,1,19.424428,-99.183187,2016-07-24 11:39:20.667000,,
f0aedf0e6b9642a5bec1140859cf05bd.16,1,19.424359,-99.181785,2016-07-24 11:33:30.267000,,
9d6de55944724f76840beecdeab1ba32.16,1,19.422912,-99.17914,2016-07-01 01:56:21.693000,,
2093441d8d664d09b550ecc1affe994d.12,1,19.422599,-99.180308,2016-07-20 05:11:39.918000,,
5bebaafe4c114e48b2941d84acee5400.16,1,19.424192,-99.180627,2016-07-24 12:40:53.294000,,
f27536055b964c379f6af25b6ef94870.16,1,19.423972,-99.181533,2016-07-24 00:57:33.002000,,
a897f620eaa24540bfee95c917a029a1.16,1,19.42373,-99.179986,2016-07-24 12:47:51.250000,,
792b0320d5944771b3779fec6f0abbc4.16,1,19.423163,-99.179104,2016-07-20 06:04:11.815000,,
969ee2039d2a4c2589fceb336c007898.16,1,19.423286,-99.188751,2016-07-15 20:45:51.018000,,
e0362280c319445397ec4d254edfa69d.16,1,19.427436,-99.188177,2016-07-16 06:31:29.091000,,
0ad3fbedd02a4ea680941928efb7a8ea.16,1,19.413929,-99.178935,2016-07-21 02:35:15.973000,,
5e3062f25f354c678e08cf714938ccde.16,1,19.421587,-99.18674,2016-07-23 17:49:59.262000,,
22a145a5b1f44953afb937407b365d79.16,1,19.425493,-99.186422,2016-07-24 19:56:21.885000,,
3dc3a2ef03604f4796e0ca49c7535671.16,1,19.419119,-99.180189,2016-07-16 22:36:44.587000,,
1d535226620e4b2b803541a79857687c.16,1,19.429874,-99.182684,2016-07-23 21:39:01.949000,,
ade2f3cb6d8345d6807133565d0e6987.16,1,19.426422,-99.188331,2016-07-24 13:54:15.527000,,
b93cf59075eb4cbfaa88c68a9f579fce.16,1,19.416026,-99.18092,2016-07-21 02:47:45.726000,,
6f5e215f209e458a87f4d637fa3a9afc.16,1,19.423685,-99.18785,2016-07-19 19:39:29.747000,,
2bfa48f647934c69a28bcb4de1130ff0.16,1,19.430151,-99.186358,2016-07-18 22:11:12.845000,,
fae575183d634602909409fefe0d4af9.16,1,19.421673,-99.188713,2016-07-23 02:45:05.150000,,
26af424c57d246d091efd52853ac4d6b.12,1,19.426066,-99.185472,2016-07-24 21:53:39.167000,2016-07-24 22:20:39.128000,21
d788dd29c5dd4644ac4706107a45f862.16,1,19.411598,-99.181818,2016-07-01 01:56:21.694000,,
b05f5e3da6644856ab53400988993362.16,1,19.413666,-99.181856,2016-07-23 02:14:04.577000,,
5cc995484b994611a211a4550743c167.16,1,19.41271,-99.182497,2016-07-01 01:56:21.694000,,
42673bfc8e8d4bcb992dd00ff55bc6b2.16,1,19.414963,-99.181381,2016-07-24 20:46:01.392000,,
f521d9705eed44a8ae86d5691c28c0f1.16,1,19.42525,-99.181302,2016-07-24 14:12:20.115000,,
755dbe2349db4f468e387d3225d224da.16,1,19.427944,-99.179428,2016-07-23 00:25:30.034000,,
167f11b2ee404bb1a9bd0c257006af86.16,1,19.425772,-99.18467,2016-07-24 19:31:33.214000,,
d3209876eab54f0daf8061f88cc2d8e2.16,1,19.412627,-99.182285,2016-07-23 16:36:52.338000,,
8efb3a25158a48a0b4446bef2162c675.16,1,19.424671,-99.185752,2016-07-24 21:19:21.045000,,
87d4d8a5afd24decafb7829451e72ccf.16,1,19.422894,-99.185085,2016-07-24 21:51:02.223000,2016-07-24 22:21:02.185000,74
fa71a81ed8c24628bacd70285e98b7bf.16,1,19.422973,-99.188026,2016-07-19 04:33:20.582000,,
25f7913e8c2b4d188bea2b540b45bdff.16,1,19.4165,-99.180004,2016-07-20 16:59:39.037000,,
a2be43a3dcfa4dbdb6184deb7560475c.11,1,19.415402,-99.180228,2016-07-01 01:56:21.694000,,
bf72edb3ea56487e9620efb227ead9a7.16,1,19.425421,-99.184321,2016-07-24 19:31:34.684000,,
21188626c1534db5873603ec615215d2.16,1,19.42137,-99.186075,2016-07-24 20:18:31.799000,,
26543c33a8504b6f879644510a45749e.16,1,19.414094,-99.187309,2016-07-19 06:09:23.281000,,
b4f0029648f048cd815f76fdc21a930c.16,1,19.416193,-99.186623,2016-07-21 18:22:40.022000,,
925157cfa9924a8a8ecd1b2ed2d8249d.16,1,19.417054,-99.179422,2016-07-24 19:38:04.049000,,
cf9a00cf7d914f36b6ab27e4717f993d.12,1,19.419941,-99.186662,2016-07-24 17:37:59.146000,,
17d84169c66641f38342cd6e3ec6cb43.16,1,19.422271,-99.189005,2016-07-23 17:40:42.060000,,
658df3a3eb2a4c68a3314e1a04827c08.16,1,19.424735,-99.187328,2016-07-24 21:38:11.499000,,
91b242c97b3340fea6d9d5592df0e482.16,1,19.428734,-99.185837,2016-07-22 17:34:28.855000,,
7abc4975843846a4b442325779508c38.16,1,19.428523,-99.180374,2016-07-21 00:41:46.188000,,
3683d84c77e047dea819f55f5506c48f.16,1,19.419956,-99.185481,2016-07-24 21:27:52.931000,,
d666e6928ac04aeeba61d6e02b53fa6c.16,1,19.426465,-99.186194,2016-07-19 01:21:38.653000,,
1094c72e25c34fc28e003871b53f2409.16,1,19.425758,-99.178966,2016-07-23 16:25:35.479000,,
78953cb2c71a4940b3433478e88bf9c0.16,1,19.422895,-99.189053,2016-07-24 21:54:41.008000,2016-07-24 22:21:40.964000,27
65a85795471448db9f201773e2d45c6b.16,1,19.425143,-99.187925,2016-07-24 19:47:07.458000,,
92ac80edb66349b485b7b8d69f0b4e41.16,1,19.413451,-99.180596,2016-07-22 19:17:45.566000,,
62062970a6c84616ac53be123b8d7b43.16,1,19.415802,-99.180461,2016-07-24 18:40:36.035000,,
2df567fbafd4461aa460454dde478b97.16,1,19.425365,-99.187478,2016-07-22 16:19:58.029000,,
d9372e61ab7e48fd80212f7aa98818b0.16,1,19.426512,-99.179319,2016-07-23 22:20:25.188000,,
cc94412bb84f48b4b67b1b8a9d89d3ac.16,1,19.426807,-99.189661,2016-07-23 22:10:09.592000,,
4e8b39080e044d9a87b388c2493ca93f.16,1,19.42301,-99.187396,2016-07-24 22:11:54.856000,2016-07-24 22:20:54.817000,66
e1af67d75d87413da57afdfea2b50b82.16,1,19.418339,-99.181388,2016-07-24 18:29:55.841000,,
4614f9f6fd944c23a82c96443e623595.16,1,19.425502,-99.188564,2016-07-21 06:50:11.645000,,
256bdd022db549c1bf7fac90fb67f40d.16,1,19.426781,-99.184386,2016-07-24 22:00:57.289000,2016-07-24 22:21:57.252000,20
5265420c422b48038ba306696ffae7a4.16,1,19.421684,-99.187417,2016-07-24 13:25:04.366000,,
3f8aaa21133c4a15830fcfdc1566e9f6.16,1,19.420412,-99.187519,2016-07-20 22:55:06.897000,,
0a92c79a5fb14c30ba33cab4bdda6930.16,1,19.415861,-99.186431,2016-07-24 22:11:42.342000,2016-07-24 22:20:42.305000,74
4b6a2401e061428fac6cd933cc45bef6.16,1,19.416097,-99.179137,2016-07-19 21:13:24.309000,,
99ee9b619f624f3cb12f1e9c7937e4b9.16,1,19.426427,-99.182825,2016-07-23 20:44:38.866000,,
c245cab116b142419a37ba8ef34b9662.16,1,19.424906,-99.18533,2016-07-24 15:43:58.341000,,
26dc3857e97c43ed91a902ec6d61deae.16,1,19.426961,-99.187641,2016-07-22 17:13:43.618000,,
5ee1059bd4d947a4be8c40a12a01b7d0.16,1,19.424059,-99.189337,2016-07-01 01:56:21.694000,,
68cae3a12c10420f8800e7088c384391.16,1,19.415268,-99.184736,2016-07-19 05:51:54.189000,,
94582226df1c4ed388dd55db4384dfcd.16,1,19.422362,-99.188182,2016-07-19 23:37:21.916000,,
4481a2b9057d4a57ac76d1ce8a540294.16,1,19.415711,-99.187649,2016-07-24 21:42:34.189000,,
a2ef9eece37349c0848d442a5fc6a975.11,1,19.428055,-99.184347,2016-07-24 18:54:06.292000,,
86dc10232f8443f8b9ff958c6675602d.16,1,19.426906,-99.182409,2016-07-22 20:14:55.641000,,
d331209df1254bc78056efa300250143.16,1,19.424629,-99.184643,2016-07-24 21:59:02.749000,2016-07-24 22:20:02.703000,23
3f2fc64e42184608ab892d5a4dc0fbf4.16,1,19.430207,-99.181376,2016-07-16 23:16:26.002000,,
cd2198ad24c54006addb5ab146f3fa40.16,1,19.423293,-99.189476,2016-07-24 21:20:06.647000,,
45268e68c9324d559061605966e9dd3b.16,1,19.422515,-99.189272,2016-07-24 17:14:29.627000,,
c31ab916fa6e45e9a7d6511bdf7c3f36.16,1,19.41502,-99.17895,2016-07-21 18:13:24.829000,,
d8539518a5224193a7a669dec8eca52e.16,1,19.41411,-99.180256,2016-07-23 14:51:24.235000,,
8bd8335aa3154a6b98811947feafed01.16,1,19.42594,-99.185858,2016-07-22 18:41:17.022000,,
117edebb7bd34dccbe854c8eef667e6e.16,1,19.425006,-99.186996,2016-07-17 06:35:14.367000,,
9da811455df2404fb5496cd8e9c3d40a.16,1,19.430883,-99.181382,2016-07-24 20:35:34.702000,,
ef9610a8cbee4e2a8387ad92537757f9.16,1,19.424716,-99.185128,2016-07-24 21:36:12.999000,,
37e526dd818d45acb5bb0e2c4eaeed07.16,1,19.429328,-99.189846,2016-07-24 03:26:09.948000,,
668c9e2cf5054cd48450266846f12060.16,1,19.413875,-99.179554,2016-07-22 20:44:07.690000,,
c256038d0e234a29aae3ad5558ec6785.16,1,19.41938,-99.185429,2016-07-24 20:53:51.094000,,
5c285c63f1b1465faf302da4ae2b9dd0.16,1,19.414699,-99.184202,2016-07-23 23:07:13.439000,,
3a064ead70844158835e453247cb929b.16,1,19.419072,-99.183813,2016-07-24 19:07:03.670000,,
1dcb954886564802a8c0f7f72ecb0f1f.16,1,19.424712,-99.188354,2016-07-20 18:14:40.936000,,
9f4fa722f17145b9933994d97e4149d0.16,1,19.418315,-99.189317,2016-07-23 22:40:44.402000,,
5da3b181c9ab45258d7c288f0dbf27fe.16,1,19.424154,-99.18865,2016-07-01 01:56:21.693000,,
66d7493e79fb4bfd9297664e17a8becc.16,1,19.425596,-99.189336,2016-07-24 18:34:25.940000,,
fd9cf82babbf4ee1a8aee9110b74e602.16,1,19.430391,-99.180485,2016-07-24 14:36:51.526000,,
0f70aa9eceb646c6a63b9f8f23d0f7d2.16,1,19.421903,-99.187261,2016-07-24 13:24:57.461000,,
260fa403dc0147f5a4ed1027497240f5.16,1,19.41435,-99.181313,2016-07-21 18:05:03.203000,,
797d08681daf4cf493717066348101ad.16,1,19.429322,-99.188302,2016-07-16 06:36:14.602000,,
32e90cb3a4d043389626a170c5d79a84.16,1,19.418722,-99.181699,2016-07-24 22:15:10.603000,2016-07-24 22:21:10.563000,77
77a1f2d2c0cb4ef989b0388a61288f24.16,1,19.420702,-99.185913,2016-07-24 20:50:25.328000,,
9072779b443c4de4a37e72404302aa03.16,1,19.422804,-99.185983,2016-07-24 22:13:14.383000,2016-07-24 22:22:14.337000,27
682e08cbff28458ea770c19a6f0ef9d9.16,1,19.41601,-99.187589,2016-07-24 21:07:47.371000,,
8ca44e343c35481b8347c9ad6ebc23e8.16,1,19.429532,-99.188679,2016-07-22 22:25:27.802000,,
b8b6e211bb31419a9fde0de850de8d4b.16,1,19.429548,-99.178948,2016-07-22 00:30:38.987000,,
e0f029aa32c04efdb010257ef4c0c699.16,1,19.41749,-99.181473,2016-07-24 19:54:02.583000,,
492247c4a43f46b49e7825fe373dc611.16,1,19.42495,-99.184748,2016-07-24 19:15:11.022000,,
c9a77a616b4b4186b9cf2d99ab183515.16,1,19.422178,-99.189377,2016-07-23 22:55:44.045000,,
6f96c778ada3436f84e1dad689cf132f.16,1,19.414892,-99.179819,2016-07-23 15:03:46.012000,,
8051be0f542140ca81032e65c2af74f3.16,1,19.413833,-99.183161,2016-07-24 15:44:55.344000,,
41ce1ab13008483c92ab8a37546c2192.16,1,19.420895,-99.185651,2016-07-24 20:53:41.473000,,
0458c7603dc6463f98d2a686afbe658f.16,1,19.418871,-99.181382,2016-07-24 22:13:07.384000,2016-07-24 22:22:07.342000,27
5b9be28caab04dd7a84ab1862f8f285e.16,1,19.427077,-99.187173,2016-07-20 02:35:20.176000,,
587488aad3454be7aac02cbbff66f17b.16,1,19.420394,-99.186236,2016-07-24 20:04:23.904000,,
e0c84fd53aa14c6a9dd2a41124c0daa6.16,1,19.418868,-99.187492,2016-07-23 22:13:39.781000,,
61f7dbe639744442b68afffbb79b8007.16,1,19.421036,-99.189803,2016-07-23 21:09:36.324000,,
5cfc5b518190421d9cb4171a189a229c.16,1,19.425145,-99.182829,2016-07-23 22:18:25.078000,,
29e43390bfa244ccb72cf7ddcc36fa2b.16,1,19.422361,-99.185752,2016-07-24 21:42:52.723000,,
d4e97e3783014bcb89bfe451faf32ffe.16,1,19.416206,-99.179987,2016-07-21 20:44:08.768000,,
48cff584b54245fba31351fb1659f58f.16,1,19.41905,-99.183537,2016-07-24 19:08:04.498000,,
c03eaf005b1b4bd4bd27eb156b3d9b21.16,1,19.411376,-99.182552,2016-07-23 19:11:58.364000,,
008d712feb684464aa9633b718874760.16,1,19.425042,-99.188525,2016-07-23 20:09:03.223000,,
26b16e2516424266ba8295a76fe0cb94.11,1,19.428305,-99.180068,2016-07-01 01:56:21.693000,,
76920bec83dc4b8a92464bf001329161.16,1,19.410529,-99.182585,2016-07-23 01:32:22.458000,,
04fef3a20fbd4dc090b8b14e86d827f9.16,1,19.428648,-99.185464,2016-07-23 18:31:01.544000,,
dba88e7dfeea4d21961f931152eb4cb6.16,1,19.428971,-99.179673,2016-07-22 15:46:32.617000,,
889c1719ef7348889361037dca775afa.16,1,19.420992,-99.189362,2016-07-24 14:27:04.558000,,
06614797dad948919ba4a336bab61184.16,1,19.672233,-99.20299,2016-07-24 20:34:47.552000,,
6f294703afe0498ab8e6195009458dca.16,1,19.675915,-99.203537,2016-07-23 00:46:32.293000,,
bcf0e36de22342a992322bdf274da9ee.16,1,19.671004,-99.206438,2016-07-24 14:58:31.057000,,
c2778627b98446f2967e47da52829cc0.16,1,19.671401,-99.207093,2016-07-24 22:13:27.739000,,
bddf19736d444fb0a0cb80368d8bf57e.16,1,19.665972,-99.209915,2016-07-21 23:10:33.281000,,
60cd6a3753ae4641a4095c2eea9295d9.16,1,19.669556,-99.210806,2016-07-23 20:33:43.315000,,
494c4711eb384ab6ab3ddb3aac89748a.16,1,19.672387,-99.201097,2016-07-21 16:22:58.828000,,
a22da9d682c34141a92b9e81e38ecf24.16,1,19.654487,-99.224381,2016-07-20 17:57:07.555000,,
a91ceb4a2c6041e9a71df7f93b55fcbd.16,1,19.679133,-99.215632,2016-07-24 22:53:10.042000,,
be81160ffc2646f3ba2650e43846e875.16,1,19.673883,-99.219485,2016-07-24 02:46:31.582000,,
19574818dcb04221b95f3b4c48c3c9aa.16,1,19.67618,-99.212104,2016-07-01 01:55:13.417000,,
12a628bcb8094157ae238b393ee040ef.12,1,19.67512,-99.217339,2016-07-01 01:55:13.417000,,
eac7cd30918a46a6bddd5fdeaa15543a.16,1,19.665848,-99.212331,2016-07-24 19:46:47.033000,,
3f50e9910e864fd9807c745486edd50c.12,1,19.654172,-99.219316,2016-07-24 23:31:48.408000,2016-07-24 23:46:48.372000,19
08e93012df42473c865e090857917181.16,1,19.655309,-99.221608,2016-07-24 19:15:51.104000,,
d2b223808b1c440c937c26ad85ed0377.16,1,19.298297,-98.894917,2016-07-24 23:40:49.072000,,
3ef88180c10a49988d4363a529cb4419.16,1,19.295974,-98.898937,2016-07-25 00:24:02.295000,2016-07-25 00:42:02.250000,19
9fdcf317a7954de6bcd8a65d9490f9fb.16,1,19.294915,-98.894876,2016-07-25 00:39:08.167000,2016-07-25 00:42:08.128000,23
e1d0890a26db43c292477d86462b0974.16,1,19.296568,-98.895193,2016-07-01 01:53:03.105000,,
98c638d982aa4adc970802929231a37b.16,1,19.290831,-98.900994,2016-07-23 00:38:25.211000,,
3c83c15de82e48c2878da697ccf4a8b5.16,1,19.289221,-98.919781,2016-07-14 19:25:47.073000,,
39e21b5fa0c74dbb8a33d4367805c458.16,1,19.290293,-98.91884,2016-07-01 01:53:03.105000,,
db28e7aa5e5f43c280dbfd06759db0dd.16,1,19.289232,-98.919574,2016-07-01 01:53:03.105000,,
209b188581384f72987a210421cdaacc.16,1,19.286165,-98.921587,2016-07-22 06:32:57.874000,,
1529c704d2f541e5a38a50f5fa9fd239.16,1,35.364033,-119.002732,2016-07-13 22:58:45.669000,,
031b4b5b338f435991cde79ec6b21624.16,1,19.442073,-99.086776,2016-07-01 01:59:22.383000,,
07c3757cc47a421790aab8457dabcb09.16,1,19.447186,-99.081009,2016-07-24 17:37:22.374000,,
7412eb9700e04ebcb96451a6d44b5b5d.16,1,19.419986,-99.088478,2016-07-24 21:45:46.003000,,
b6b3ab9976d84f938843991cf86be97e.16,1,19.423164,-99.087618,2016-07-25 00:06:26.500000,,
7280ce4d49fe44328025cc6a87dcaf42.16,1,19.430857,-99.097979,2016-07-01 01:55:22.434000,,
399f259845fd469f9310743e087a09e0.16,1,19.43115,-99.101345,2016-07-24 14:18:28.075000,,
42d7d2f90e784136a245ee19f2ba8d28.16,1,19.431517,-99.100517,2016-07-23 20:58:56.411000,,
0c7cfeef02814d23a310ea68e562f9d5.16,1,19.430726,-99.095044,2016-07-20 16:36:21.363000,,
3dfe723e935142efb857457c673a088a.16,1,19.435517,-99.082746,2016-07-24 22:20:20.736000,,
f21bca492ef34cf39954db06b7c3f4a5.16,1,19.424961,-99.093177,2016-07-23 23:29:28.535000,,
c486111fedcb4b72bd47c423c62b0b1e.11,1,19.432055,-99.094563,2016-07-25 00:21:24.283000,2016-07-25 00:48:24.250000,58
5990cb045d9740769627e0c0e49738ab.16,1,19.435388,-99.083386,2016-07-24 23:09:57.772000,,
2cef2866096a4a5190670ebafa617a5f.16,1,19.424682,-99.09508,2016-07-01 01:55:22.434000,,
9c58a1b3c08c4a2bad1acc4ed5a0886e.16,1,19.428625,-99.091605,2016-07-23 03:10:47.598000,,
d265928ae3e14c5f829e45d993a2635c.16,1,19.434919,-99.084054,2016-07-25 00:00:12.403000,,
8c94b86eb43749428cf06e611a976435.16,1,19.426617,-99.09562,2016-07-24 06:57:39.446000,,
e4451dff52064786b311a228177ab394.16,1,19.431653,-99.095136,2016-07-25 00:46:17.917000,2016-07-25 00:49:17.883000,104
ebd4b007e95c415f897c051804a959ba.16,1,19.435212,-99.085486,2016-07-24 23:01:10.161000,,
0339eb23e3854643b72f8317d4fbdb57.16,1,19.435655,-99.082189,2016-07-25 00:34:06.613000,2016-07-25 00:49:06.572000,84
efe33d79cc6d418192889a9384091fb0.16,1,19.434954,-99.092753,2016-07-17 00:47:47.504000,,
cf1b557cb7b44657bed033090b751416.16,1,19.42728,-99.091926,2016-07-01 01:55:22.434000,,
64c16d5a7631422abb33e5ce44138097.16,1,19.427919,-99.098394,2016-07-21 20:17:49.388000,,
5680db8ea962413b887edac4df90e7c9.16,1,19.431536,-99.094797,2016-07-25 00:46:04.957000,2016-07-25 00:49:04.919000,77
f2b9d092bf114fccb9cf347dd871a38d.16,1,19.434515,-99.094889,2016-07-01 01:55:22.434000,,
a3c67a5f7b604fb898f0f608baf191b8.16,1,19.427815,-99.092051,2016-07-01 01:55:22.434000,,
135cfa7a5c7a478493544215a4f61cb4.16,1,19.427828,-99.093762,2016-07-01 01:55:22.434000,,
46f0a52b5d2a4c99a97be005328ca558.16,1,19.434677,-99.083286,2016-07-25 00:14:51.845000,,
a122f06a0fca4ceeb087330bb5b30ba8.16,1,19.424549,-99.098173,2016-07-23 03:18:05.280000,,
4a44792c3ed14a4d9a41c132479b8148.16,1,19.433768,-99.085695,2016-07-24 23:43:07.450000,,
7460c496cc574c50a15e827270f9c3d0.16,1,19.433632,-99.086451,2016-07-24 15:27:03.945000,,
67349853992a442389719a6ec67697a5.16,1,19.429387,-99.091215,2016-07-23 23:06:08.465000,,
5d54496b2df44d5aa80f04b0b8d36308.16,1,19.434362,-99.084178,2016-07-25 00:32:39.130000,2016-07-25 00:50:39.012000,23
506d8bccf3364ce7b9208d8bd1a501f8.16,1,19.423799,-99.100611,2016-07-23 01:15:54.569000,,
74c90c3ba6f443f5854ca2a350cbdab8.11,1,19.435979,-99.081631,2016-07-24 16:44:14.059000,,
dfb62bd74e9843a780710d204f77710a.16,1,19.439889,-99.084177,2016-07-01 01:59:22.383000,,
755afe90d00541e7b31358cc0db7bb4b.16,1,19.440991,-99.086681,2016-07-01 01:59:22.383000,,
cd70fe420855450d9368fad6c3da11f9.16,1,19.437501,-99.083484,2016-07-21 22:54:17.738000,,
10d5be623414456583b6d404485eaec7.16,1,19.439542,-99.080727,2016-07-18 00:14:24.006000,,
6e10948e6e6345c4a8ed9bea50deb361.16,1,19.436748,-99.086092,2016-07-24 00:40:17.602000,,
adec74a6385c47a6946a64a4ab752f60.16,1,19.439517,-99.080447,2016-07-20 03:09:36.905000,,
3258c2c579904b4cb12b62209619dddc.16,1,19.441789,-99.093392,2016-07-01 01:59:22.384000,,
51ba5e507182461bb8d3f875f32f1233.16,1,19.439861,-99.090647,2016-07-24 00:14:26.178000,,
b1dcd7c7b7bc4be2972e5d633df8aea2.16,1,19.442926,-99.098063,2016-07-24 19:44:55.175000,,
d3a33ae14e9241b690d16ec407e1b3d6.16,1,19.486403,-99.143062,2016-07-18 18:42:17.528000,,
55df5f846e0541acb1f86a4daa0b836e.16,1,19.487068,-99.145279,2016-07-18 23:25:54.398000,,
1547936515db4accb1fdc2a72886b117.16,1,19.484849,-99.140502,2016-07-01 01:52:13.656000,,
340458fb81614d6e923548252ba3ce40.16,1,19.484958,-99.143748,2016-07-19 16:37:08.546000,,
fd4f8e85b75a4f0db0ab35c8ca444913.16,1,19.470859,-99.108476,2016-07-23 04:18:47.297000,,
0f947ab343f1412bacb584ad476ffac4.16,1,19.470509,-99.107476,2016-07-24 03:34:51.543000,,
04c64a5c0293450a8da3ef5ff34927f1.16,1,19.471726,-99.111619,2016-07-01 01:52:13.658000,,
25c5e0732b684a50b9db7e1283242650.16,1,19.472946,-99.107664,2016-07-22 23:02:27.004000,,
aec725276ad84101924a6b9291924230.16,1,19.471057,-99.107241,2016-07-23 17:50:40.778000,,
fe44d10c8d25405694c1a1fdd18eed37.16,1,19.47097,-99.107888,2016-07-24 19:59:15.267000,,
c0692c3a622a466a9a4ab284aa6ec911.16,1,19.471133,-99.10929,2016-07-22 00:30:31.868000,,
1ad54a7a516e48f9b6a2121ba1861cea.16,1,19.473176,-99.109982,2016-07-23 02:46:08.395000,,
fbd6d5a1909e4b5f86bc6b4c3b4b8fd6.16,1,19.473593,-99.111291,2016-07-24 07:09:58.422000,,
aaa8a34f1c374ccd9f652009d401388f.16,1,19.475075,-99.112162,2016-07-01 01:52:13.658000,,
35c9dfd271e24472b60cb634aa5ab209.16,1,19.473008,-99.110407,2016-07-23 18:55:51.721000,,
9eeffdb2a45249c3a54acd33491b7754.16,1,19.474382,-99.109692,2016-07-01 01:52:13.658000,,
63c3038e4bc449868134b85bbf649bcd.16,1,19.475661,-99.111523,2016-07-24 22:53:33.335000,,
f544677f75c0497b88ec97f78ac77162.16,1,19.280926,-99.638412,2016-07-20 17:26:41.367000,,
d2fb179edbda4d569f71aa664be2e996.16,1,19.282857,-99.634594,2016-07-22 23:57:01.721000,,
184e962b99a04bf3905e36c34f949e55.16,1,19.283408,-99.637375,2016-07-24 02:16:04.488000,,
4447972accb04b2fad7388fd5bfc05d3.16,1,19.283622,-99.63848,2016-07-01 01:59:04.929000,,
4519dff98edc40a0a13dc1ea98dfad4d.16,1,19.281921,-99.638345,2016-07-20 15:07:43.011000,,
2a590e25790f4598ae150a8ec02ed9ad.16,1,19.283464,-99.637765,2016-07-23 04:04:18.801000,,
e732d2e4a6a44c76ae85842e05be459c.16,1,19.280792,-99.637898,2016-07-24 14:40:02.324000,,
f5782757b5e844a3b7f74fc391b5aad9.16,1,19.28155,-99.637992,2016-07-15 19:47:29.713000,,
4f2568c6ae3c4728986fb7fefc4c8f56.16,1,19.280325,-99.63871,2016-07-23 19:44:32.885000,,
7bdb58ae967041eb9059fe684d39191a.16,1,19.280367,-99.638043,2016-07-24 14:41:38.350000,,
6afc839dfa3045de962fee27db023a93.16,1,19.277911,-99.637659,2016-07-20 02:37:05.840000,,
9611490824e24d4d87ffe8839f9037c1.16,1,19.279935,-99.638582,2016-07-24 22:44:52.406000,,
678822c5740e45e6b0d6c76fd91ee863.16,1,19.280442,-99.637406,2016-07-22 23:43:37.332000,,
882298357b234c6188f8d0f84ff767b6.16,1,19.279646,-99.637815,2016-07-19 03:47:12.053000,,
75bd9e9e1a764137aa273b1ec4031d56.16,1,19.278771,-99.638053,2016-07-24 20:51:41.212000,,
a32d230342a84fc697b75f4680e0bd9e.16,1,19.27862,-99.638359,2016-07-21 16:25:31.332000,,
736978f5b0eb4ba7bc82f93842666ba2.16,1,19.252216,-99.665277,2016-07-24 02:25:30.423000,,
a52e8c48791645f9a9d72470ed53539b.16,1,19.250367,-99.665234,2016-07-16 04:56:24.955000,,
64483496eb9a498ca4291520b03664b4.16,1,19.2539,-99.663423,2016-07-22 21:32:20.196000,,
606a7b575caf42f68cbf3bf74983fea6.16,1,19.261703,-99.657478,2016-07-21 05:21:07.543000,,
0072bc4437194425a637242599c6382c.16,1,19.255396,-99.666413,2016-07-23 17:06:28.087000,,
9843819887714af4a89857c7789edac9.16,1,19.282715,-99.653349,2016-07-01 01:59:04.931000,,
976a6211bef8440d8c9546f7ace1878f.16,1,19.285899,-99.65266,2016-07-22 20:16:34.097000,,
763093388d334bd9aff05e3fadf7f12f.16,1,19.282636,-99.655886,2016-07-01 01:59:04.931000,,
b918462ad03242318a415254c1469e5b.16,1,19.285098,-99.655045,2016-07-18 02:03:18.872000,,
f230e83975374089a0b99cc2315240ba.16,1,19.283021,-99.652841,2016-07-18 16:08:36.460000,,
1a3baea4af834f73810ac563db8427ae.16,1,19.28401,-99.652843,2016-07-13 22:39:02.357000,,
fbc3b1906cfb4ec1aceded3e1f47c68b.11,1,19.285832,-99.65247,2016-07-24 20:38:33.002000,,
c17a2187f7e44c6d844846cfa7ae1a8d.16,1,19.282854,-99.652186,2016-07-25 00:02:34.376000,,
1d0223307a5e45c7989772a14ce32e3b.16,1,19.285382,-99.653815,2016-07-12 21:44:35.740000,,
ee500d0d7395497fabc496b9b9d470af.16,1,19.285549,-99.653385,2016-07-24 16:00:48.854000,,
56b8be92b5d14603af2fc0f23fd39b8a.16,1,19.280692,-99.653872,2016-07-01 01:59:04.931000,,
5c46ae483cee4a30b7d3695cd88ca861.16,1,19.286245,-99.655382,2016-07-17 04:33:37.384000,,
35351a752d08459d943ccb98cd7cbdad.16,1,19.280992,-99.655893,2016-07-23 01:43:31.200000,,
da896a1fd58748f89e7fc7061d513ec6.11,1,19.286035,-99.654123,2016-07-24 14:04:35.613000,,
386ff5554ecb4bf4b1169de97071a1cf.16,1,19.285918,-99.653579,2016-07-12 16:40:38.468000,,
70739bb9e9b24d20a123b968064527fd.16,1,19.280168,-99.653253,2016-07-01 01:59:04.931000,,
69057c0b75484ad2b2ac5494c0da753e.16,1,19.287542,-99.652903,2016-07-01 01:59:04.931000,,
8a1cdac6ed264b87a59fce5b11fa99f5.16,1,19.287429,-99.65511,2016-07-01 01:59:04.931000,,
4791d2030854419580ba95f3ec70a8a8.16,1,19.288456,-99.655713,2016-07-24 22:50:20.136000,,
40e5e25f48db4c55bdbcafca7822c04d.16,1,19.287279,-99.654234,2016-07-24 21:31:13.096000,,
c28f8482b71748b397dbf06e9283a937.11,1,19.286056,-99.655861,2016-07-22 21:59:44.018000,,
cdf5ecc426284bad853b364b574613ba.16,1,19.281667,-99.652671,2016-07-01 01:59:04.931000,,
43978f47f0274833b7ddae5637f46132.16,1,19.282664,-99.654714,2016-07-01 01:59:04.931000,,
f234cd3db8b14605bc81263fb2a03df9.16,1,19.288356,-99.654916,2016-07-23 17:08:29.571000,,
77c37af40e214331b1428f31e47cc2ad.16,1,19.273482,-99.664075,2016-07-22 19:26:05.230000,,
8f40a105b99c4807bf43e40a01f0075e.16,1,19.257963,-99.64818,2016-07-01 01:59:04.934000,,
0871e6c7acd348a498fd31979c826ee5.16,1,19.257763,-99.6489,2016-07-23 17:03:34.227000,,
19405ceaaf98435c9344b799bf3e7618.16,1,19.257469,-99.64753,2016-07-01 01:59:04.934000,,
09eecd86d29641d98b24150176def1b6.16,1,19.257927,-99.645493,2016-07-23 18:33:29.206000,,
4d1788e9c1de4638a0e4df91695b7855.16,1,19.254752,-99.647943,2016-07-01 01:59:04.934000,,
271640682b6948d0b4ed670e3f52adea.16,1,19.257918,-99.646048,2016-07-23 18:33:42.776000,,
eaf90178cae846c29b239ad31d5262de.16,1,19.2575,-99.645741,2016-07-23 18:33:36.269000,,
494990bc9bb64c56be22aeeec92e2a87.16,1,19.257156,-99.648731,2016-07-22 19:34:45.739000,,
2ebc194ec23e4b0e893a5900febdceca.16,1,19.256321,-99.648044,2016-07-24 19:27:32.930000,,
fe203666bdd747fe8656908f95fa8786.16,1,19.257941,-99.646903,2016-07-24 19:19:12.036000,,
14182229af07483ea7359723d0cf7f3a.16,1,19.275601,-99.659523,2016-07-01 01:59:04.932000,,
38b053d4f6a84fcca377d70d541bb5df.16,1,19.274307,-99.658356,2016-07-01 01:59:04.932000,,
a30d44e334a74a619c386bb99a59c65d.16,1,19.276066,-99.656865,2016-07-01 01:59:04.932000,,
7526d5bbfc5d4db2ac8c935123c112eb.16,1,19.272855,-99.660361,2016-07-21 12:14:21.792000,,
9d2102ec385845a0af0241aa7ad02b3c.16,1,19.273545,-99.660007,2016-07-22 01:23:43.118000,,
2d6ed5eaa8374c259c204aeb01c2b5fa.16,1,19.273086,-99.657539,2016-07-01 01:59:04.932000,,
1a12ee6e1ae0400296582993a5d1f07c.16,1,19.271593,-99.660416,2016-07-01 01:59:04.932000,,
f5861287fcd0437fae70c5e99872293b.16,1,19.2724,-99.65939,2016-07-15 22:11:49.734000,,
96d13f5acf9c44a4a74d60160812457f.16,1,19.271273,-99.661708,2016-07-21 21:17:51.984000,,
dd7deb6401cb4a1fa9508dd7fdd9c866.16,1,19.27556,-99.658232,2016-07-01 01:59:04.932000,,
50c1f39d285b4983ae8c4972a7b79c1d.16,1,19.274572,-99.659453,2016-07-24 19:52:47.786000,,
58d450db795c4f148f1659046d683080.16,1,19.275624,-99.657165,2016-07-13 23:53:13.076000,,
863f80850e1d4d3dad4142f149967da2.16,1,19.271377,-99.660412,2016-07-19 14:41:00.650000,,
d52f6ba3385744bb95b7e57a0fa460ca.16,1,19.272341,-99.656937,2016-07-23 00:40:05.051000,,
8e83e371e9ad4fa1ac3b6eeab02a536c.16,1,19.276216,-99.659526,2016-07-23 15:40:44.702000,,
3aca2765dc6b4556a53442fd21595182.16,1,19.271925,-99.659309,2016-07-01 01:59:04.932000,,
e4dca75dc04549e0b0775bfd5d1a5458.16,1,19.273377,-99.658957,2016-07-15 18:51:08.463000,,
8f9335b2140e4c43a00cf573c2884d1b.16,1,19.274086,-99.659626,2016-07-23 00:23:52.908000,,
f21d34e4e4534546b1c1a9ed17bdcbe9.16,1,19.275127,-99.658237,2016-07-01 01:59:04.932000,,
7908f67d70de4125a050ce1831dbcd34.16,1,19.276338,-99.658194,2016-07-01 01:59:04.932000,,
fb3b3cd3f92640cdb90252b9233f2c6b.16,1,19.279158,-99.652741,2016-07-21 21:25:24.126000,,
f85d8a89a9d5420cae428667742d5077.16,1,19.279846,-99.651708,2016-07-11 23:18:56.495000,,
a3a0ea7d16b347f5a6159bea34e27b78.16,1,19.278762,-99.653216,2016-07-24 20:31:54.350000,,
a7f5ecfd68eb486e8ea18ed2e0f23d29.16,1,19.271957,-99.656289,2016-07-23 22:06:53.403000,,
19cbef2268b14f8d82bbb0fa11d51249.16,1,19.269825,-99.653077,2016-07-21 21:49:11.809000,,
1b55f8b8ff7a4523ad76b3e9287e5732.16,1,19.269844,-99.651125,2016-07-24 21:58:58.224000,,
a69c7413421446d4979c582528c41730.16,1,19.269709,-99.652598,2016-07-21 21:48:58.327000,,
391579a742844e1e9fb7a2c78e3e5fce.16,1,19.268376,-99.653491,2016-07-23 00:40:18.209000,,
edad921d4b5a4f3d850974766afe9266.16,1,19.273873,-99.652562,2016-07-23 01:59:35.013000,,
7dcc60d729db4160892680e0bc8aab5d.16,1,19.271399,-99.650785,2016-07-24 21:14:02.934000,,
30d02da3fe364b4393c1ae981f66752b.16,1,19.273143,-99.648678,2016-07-01 01:59:04.931000,,
254c820e8c5f4393a3a1d7eb61c0e8aa.16,1,19.266395,-99.659363,2016-07-24 04:38:20.177000,,
261d492be400408296124ae0b0432d75.16,1,19.270134,-99.660865,2016-07-24 15:20:12.120000,,
9de3f13b49484ffaa31fc8bd2f10466c.16,1,19.278558,-99.654516,2016-07-01 01:59:04.931000,,
b05acb39c3e7409e88db824554b8a6df.16,1,19.274705,-99.654017,2016-07-21 20:46:33.484000,,
4d04103c80d145e4be083a4cd9e6c398.16,1,19.266713,-99.661358,2016-07-01 01:59:04.931000,,
4d93460052a749edae57033db9eba65a.16,1,19.270132,-99.650161,2016-07-24 20:46:42.331000,,
769d18b507f64f7a8149c28cf296c66b.16,1,19.275885,-99.653885,2016-07-24 21:38:53.136000,,
f815074393704020be3cd750b64443ed.16,1,19.27509,-99.648469,2016-07-23 15:56:40.735000,,
c7ce08e8a9b34079a6d0a00e167df49a.16,1,19.274643,-99.646632,2016-07-01 01:59:04.931000,,
1a5fad51dcac4e57941421ccd75d90ac.16,1,19.266984,-99.653709,2016-07-01 01:59:04.930000,,
a1aa0ee18c3f41789bf0aef1d6f608f0.16,1,19.271003,-99.652042,2016-07-24 17:26:12.848000,,
273a4126aae244fea6c44388f9601f47.16,1,19.271873,-99.648255,2016-07-01 01:59:04.931000,,
5878897c9774494392e1ece1e4ec1936.16,1,19.271625,-99.651393,2016-07-24 22:01:34.598000,,
1c1b217b373840548346fe5dfba19790.16,1,19.275393,-99.651956,2016-07-01 01:59:04.931000,,
91123e22783a4fdc949c19a90c3ee552.16,1,19.276972,-99.652862,2016-07-24 02:31:08.016000,,
112cd7b286034f73a1157353259f0811.16,1,19.268738,-99.650837,2016-07-01 01:59:04.930000,,
8675ae23b6f449199d29528bea5cf811.16,1,19.267262,-99.64654,2016-07-23 13:17:52.073000,,
adb1dbd04b014ebab9b1a06757492593.16,1,19.265931,-99.645959,2016-07-01 01:59:04.930000,,
03a9adae21ee4adea1929878a67edb29.16,1,19.276078,-99.645822,2016-07-01 01:59:04.931000,,
07caae7e0202480a9563d0770a0ae01e.16,1,19.270982,-99.650924,2016-07-24 21:13:07.935000,,
bd5ba0d6014d4572aa2bc3b620d5ca39.16,1,19.27441,-99.647714,2016-07-01 01:59:04.931000,,
c0f603cae0c346f49eafd1bbeada99ab.16,1,19.27579,-99.651665,2016-07-16 17:31:13.202000,,
2f066fb197424b23aa1aba851c2b0901.16,1,19.266883,-99.650053,2016-07-11 20:09:33.277000,,
cdc48d473b0e468ea24db41442f1b089.16,1,19.266163,-99.646212,2016-07-01 01:59:04.930000,,
17dce0b712d848c2b414ef6250b2c7b7.16,1,19.272659,-99.648512,2016-07-18 16:55:52.961000,,
5ba2777d4dde435f9a56e4ed3aa58004.16,1,19.26961,-99.650388,2016-07-24 20:49:33.031000,,
c97751ed599c48e69027ea792f5684f5.16,1,19.271043,-99.64815,2016-07-24 00:17:33.522000,,
fa5466924dca4c479ba1679e75b84e7e.16,1,19.269654,-99.647261,2016-07-01 01:59:04.930000,,
f650597a8fea49c096e0a523f699b63f.16,1,19.272132,-99.654121,2016-07-23 18:38:45.817000,,
572fb274fc8b448a8bd206eeac54030d.16,1,19.270884,-99.655111,2016-07-24 20:06:22.698000,,
5472014ca94a4d2b8fa5a5bff9a516e6.16,1,19.276129,-99.650117,2016-07-17 06:08:49.693000,,
2a23dd91e5a244a0a5adce1278425cea.16,1,19.273874,-99.648726,2016-07-19 14:31:11.164000,,
ef5b6a2ac4a4408faa76f680245c7600.16,1,19.267682,-99.657114,2016-07-18 22:39:17.403000,,
bf5d2053560f49c0862acb5470cfbc17.16,1,19.271104,-99.652688,2016-07-24 06:50:57.242000,,
10fb2c09fb91496fb20136f6579c796a.16,1,19.26799,-99.645291,2016-07-24 00:31:49.183000,,
e7ba8f1bf10e4bb39f2172eb91f71d5d.16,1,19.274309,-99.645545,2016-07-21 17:04:25.701000,,
f64c3ce50d4e4775aed97f4afb3d22cc.16,1,19.269641,-99.649861,2016-07-24 20:48:03.491000,,
6cc7a11584f14a819a9f7775b8ef3032.16,1,19.269658,-99.654688,2016-07-24 23:19:08.454000,,
26821ae93dc14e52a876fa286f588e2d.16,1,19.267466,-99.648576,2016-07-01 01:59:04.930000,,
5319ce366cde4322b82b9d54ef01eda4.16,1,19.269811,-99.651644,2016-07-24 22:07:36.122000,,
d6140e4ef5f64b14b5e5c42a5f225956.16,1,19.271546,-99.652726,2016-07-24 20:38:04.066000,,
8e5892bae50e4bf6bbea3dc5fcd9e0ee.16,1,19.267601,-99.651073,2016-07-20 00:49:08.906000,,
a5a3c12d0f154c5aa689fc236f2de82b.16,1,19.266986,-99.650851,2016-07-19 20:38:57.888000,,
92dd2eab48b64d4680d29e3653a3808a.16,1,19.279038,-99.653846,2016-07-23 21:17:25.233000,,
181851b9940e49bc9b6c04b3df75b0fc.16,1,19.271908,-99.654655,2016-07-24 17:40:40.625000,,
8c2b509007f54f1c9b41b0fdc28c9867.16,1,19.269992,-99.655361,2016-07-20 17:52:29.553000,,
2f84fa07406e407d8e274c83ae5dc0ff.16,1,19.270015,-99.647476,2016-07-01 01:59:04.930000,,
823daaac4fd943dc8954d823e8fd13cb.16,1,19.269234,-99.658334,2016-07-01 01:59:04.931000,,
5a903954d97a41788ef5f8131164a1ad.16,1,19.270996,-99.646807,2016-07-01 01:59:04.930000,,
9d982baa0dde4118ae6ce0e8c1b3e11f.16,1,19.27619,-99.640143,2016-07-20 01:47:05.525000,,
c034ff318b8c4f65a1862d7e08b13687.16,1,19.276894,-99.634606,2016-07-16 01:53:16.483000,,
88f776d906de4b2e9e7aa86fdeac154e.16,1,19.276198,-99.639931,2016-07-20 01:47:05.973000,,
f7b6cb110f04499dacb15939fe76a3c7.16,1,19.277119,-99.637127,2016-07-13 14:59:00.255000,,
06e3afa230594ff2902e8634cdfcbfae.16,1,19.273201,-99.644418,2016-07-01 01:59:04.930000,,
047cea4b97b64fdca40f855baef966b4.16,1,19.273441,-99.645212,2016-07-01 01:59:04.930000,,
a980b4ace0b148d2954a12c06fa024fa.16,1,19.267158,-99.641146,2016-07-18 04:11:00.314000,,
8638257355a441e1b66b6b9534e76dee.16,1,19.271713,-99.641539,2016-07-01 01:59:04.930000,,
439a1cd19a5b4020865f377c098b8d73.16,1,19.26681,-99.63701,2016-07-13 02:13:10.721000,,
b120ad54d57b443192d7f583bc8fdfb4.16,1,19.270726,-99.642266,2016-07-01 01:59:04.930000,,
3bf3ea93d7194f1f88dba93a6c68fe8a.16,1,19.274634,-99.635299,2016-07-01 01:59:04.930000,,
d4b3c774486e402288e67250d576ead4.16,1,19.274951,-99.63754,2016-07-22 00:53:20.194000,,
02adbb56c78f4d3fa2a9e5dbe57fe53e.16,1,19.276742,-99.640774,2016-07-01 01:59:04.930000,,
0c28624378b542f9b02997ce1fd919c4.16,1,19.263012,-99.63963,2016-07-24 00:08:29.116000,,
eb337cf3bd554e4aaf015afa9abef54e.16,1,19.275153,-99.639052,2016-07-24 05:13:19.371000,,
03acdb0f169244e4b4ab85d38831d7e5.16,1,19.266225,-99.643435,2016-07-23 16:23:21.888000,,
fe6a2a44f98a4b58970e70883c8d4b3b.16,1,19.27125,-99.6421,2016-07-01 01:59:04.930000,,
59bccc4a97e04b3fb686b35f8cd70fcf.16,1,19.269932,-99.641272,2016-07-15 13:41:32.139000,,
0d12e5cf768b4607a3979605b83eff82.16,1,19.271183,-99.636661,2016-07-20 00:01:23.154000,,
cd3bf39d72374adfb0c5dd2f452dae7c.16,1,19.273023,-99.639523,2016-07-01 01:59:04.930000,,
bb1f94abe8084482aa791c845cb7e440.16,1,19.267193,-99.642123,2016-07-22 00:43:04.742000,,
60d4087122c740a3811038b9ee9b03cd.16,1,19.272574,-99.641022,2016-07-15 18:10:13.362000,,
54a9c314da6c46909dc78e32a9233bec.16,1,19.267852,-99.642485,2016-07-16 05:05:31.390000,,
6d5f829dfc474cbdae18274fe6cd8a46.16,1,19.261234,-99.635251,2016-07-23 01:31:36.487000,,
d7f18249b3694c1ca109d06b6ebf7921.16,1,19.269645,-99.640921,2016-07-21 14:29:59.309000,,
a5083380038a44e4b206c64dbf3bc707.16,1,19.275373,-99.637643,2016-07-23 17:12:21.423000,,
f16f24d137874e1b8e0f2f15d47dfdcb.16,1,19.269003,-99.638876,2016-07-21 20:14:38.960000,,
a1b726fc18b749e5859936793ec764e6.16,1,19.27375,-99.645034,2016-07-01 01:59:04.930000,,
8362657e678144e6a1adb02642eeb1bb.16,1,19.267843,-99.64179,2016-07-01 01:59:04.930000,,
099e0841f0294a10a2ce8bf1c02f718e.16,1,19.276458,-99.641519,2016-07-01 01:59:04.930000,,
8a0e99029e4945a0b25ac23204693e8d.16,1,19.275665,-99.634974,2016-07-22 23:48:53.165000,,
c8bd7b6ca4d548dc9eead368f053462a.16,1,19.275927,-99.636508,2016-07-18 01:21:04.537000,,
30c239cc297a4997885ac151be93a6de.16,1,19.268127,-99.63878,2016-07-01 01:59:04.930000,,
8ab7510bd3a647408c2a66558c05c2e8.16,1,19.266242,-99.642678,2016-07-01 01:59:04.930000,,
9564593bbb19446ea54a9b087535721f.16,1,19.269326,-99.639245,2016-07-01 01:59:04.930000,,
7e7f71cf682c4134a8e2227117397a61.16,1,19.274483,-99.644088,2016-07-13 00:58:44.879000,,
d235fb59689d49a29812b3a6a38cdcfe.16,1,19.265728,-99.639369,2016-07-13 02:29:55.582000,,
de390b911f9d4a1182938f01ab762a98.16,1,19.268213,-99.644914,2016-07-01 01:59:04.930000,,
4de9f6b202114d65be31786de2d765c1.16,1,19.262676,-99.639402,2016-07-24 20:50:47.610000,,
b675a5399840434a9e51396635cefe86.16,1,19.27712,-99.640476,2016-07-16 17:48:52.428000,,
1e96be4b5feb47769a74f71191a54e93.16,1,19.273763,-99.636266,2016-07-22 02:19:18.909000,,
9e9a590c9feb42789d4cbb7da1397fb5.16,1,19.276762,-99.635726,2016-07-21 02:03:50.814000,,
ded2f11847d24c47a9b3be7b8eac4b2c.16,1,19.257828,-99.645097,2016-07-19 16:38:19.328000,,
ab6738041adc42478b2b68ee7fd5e625.16,1,19.26551,-99.645349,2016-07-22 00:13:58.100000,,
3327d67177e04569b6a70d9606c7cf99.16,1,19.265581,-99.642851,2016-07-23 00:41:54.341000,,
f7df6eccafe14f1f9e6c620159aed150.16,1,19.260749,-99.644978,2016-07-01 01:59:04.934000,,
499b81cc4fbd4317aadc4d942dce525f.16,1,19.256296,-99.635353,2016-07-22 23:22:07.133000,,
b0ed624332204989a1402f6f5377ac88.16,1,19.25566,-99.638019,2016-07-01 01:59:04.934000,,
4120ffe9426c4425b3daa33a8af5219a.16,1,19.265302,-99.643358,2016-07-22 18:24:33.433000,,
e48c611c49aa4fb0a948dbdf64498ae6.16,1,19.260458,-99.644269,2016-07-24 06:30:22.139000,,
b18d4daf651248bab23a27faf1a16ccd.16,1,19.260915,-99.652999,2016-07-17 23:05:30.561000,,
0115d332f58c447f9fd5e8f48b15b978.16,1,19.25721,-99.635129,2016-07-23 16:39:04.493000,,
93d59f8a4af94a7c86ee5906b025ae5b.16,1,19.263925,-99.64541,2016-07-01 01:59:04.934000,,
79c36c6e296649a8be23c9dbdc4007b0.16,1,19.262903,-99.644495,2016-07-23 15:29:59.961000,,
070e3d09bc9b4ff0800c49c8295b537a.16,1,19.260776,-99.645404,2016-07-01 01:59:04.934000,,
32043c572d5d4c4caca25b3d5e75cf24.16,1,19.258968,-99.63517,2016-07-22 00:55:30.547000,,
98eabbfbc00f48daa500c333d24c4608.16,1,19.260364,-99.649836,2016-07-22 02:19:18.090000,,
80b83b7ac6f448c68956b442411b98a3.16,1,19.257693,-99.644491,2016-07-01 01:59:04.934000,,
9ea5ac642efe4e5d957ba766ab6a628c.16,1,19.265568,-99.645968,2016-07-23 22:18:59.475000,,
4e1fb469aa9743a6b6b3a6df4c500dca.16,1,19.26253,-99.644524,2016-07-24 17:33:18.786000,,
33a6cb0922f84ba99c469eeab8995017.16,1,19.264787,-99.640816,2016-07-01 01:59:04.934000,,
f6c8aec0952e4fbd855a932313be4060.16,1,19.259872,-99.640136,2016-07-22 00:45:06.423000,,
590953c208db4004a8ba7f1a191e1445.16,1,19.260103,-99.638066,2016-07-12 21:52:41.259000,,
15663ec663ba400ca3b9a98ab0968c69.16,1,19.363792,-99.221148,2016-07-23 03:04:25.349000,,
3881335ff6af4a13a5960a19e4d1052f.16,1,19.365292,-99.206772,2016-07-14 12:30:55.324000,,
73abeb97798d4195a8d45a45f07e93c9.16,1,19.362143,-99.202104,2016-07-25 00:50:50.341000,2016-07-25 01:02:50.305000,118
f41d86e285ff47bc88a217ce4e3a1b25.16,1,19.366674,-99.206121,2016-07-24 22:15:59.706000,,
826ea6cab4b04dfb93fc996e71d69cc1.16,1,19.36072,-99.215756,2016-07-24 14:54:26.050000,,
90634a1f55ae46e9b31b05dc3602e6bc.16,1,19.363805,-99.190814,2016-07-23 00:23:06.655000,,
4f9615e0ded44d4b9b7731fa37f2fab0.16,1,19.362831,-99.190944,2016-07-01 01:58:06.673000,,
e09751c2489941888f3d28113498820c.16,1,19.407855,-99.01918,2016-07-24 22:50:30.460000,,
54bff1362a674b3c9e788f20bb887aa2.16,1,19.394896,-98.982529,2016-07-23 03:09:13.442000,,
947659bbf62a4f6cb242e45a57a9963d.16,1,19.377534,-99.010141,2016-07-23 00:44:28.405000,,
b5f2194ac58445cb98219ef42ba98883.16,1,19.380501,-99.003066,2016-07-14 23:26:50.313000,,
ef19322d8d2e49f784d0a9a83a379a37.16,1,19.399413,-99.025612,2016-07-21 06:08:03.847000,,
2910b221ea044544b670e940f9af2469.16,1,19.398695,-99.025265,2016-07-17 04:18:32.318000,,
94e653b2946542e8818ad7a608816c38.16,1,19.394623,-99.020485,2016-07-01 01:55:22.430000,,
fcd37ab36cdd471c9dabf89c5e6c2be5.16,1,19.39488,-99.028195,2016-07-22 23:27:00.513000,,
7d62230b5aee459fa0a7f496e2dcce70.16,1,19.392426,-99.013181,2016-07-01 01:55:22.430000,,
3b198ca16fb941f8a6e0049af7b740ba.16,1,19.394969,-99.018038,2016-07-24 20:11:36.487000,,
e6e48733d57a4d4384a4e13555c09c68.16,1,19.395759,-99.020083,2016-07-24 17:00:27.720000,,
90d9fe2f17de420fbf66ab9e4eb8c51a.16,1,19.397349,-99.022304,2016-07-19 06:54:45.837000,,
8c407f21699d4b668587af3cbdf12c7d.16,1,19.398583,-99.013866,2016-07-20 13:22:04.116000,,
61a903738d2c4ab5a3ca956e860fe182.16,1,19.383668,-98.994385,2016-07-23 04:21:51.549000,,
01d82aaf4d3847c689ab7e99dd0a2dbd.16,1,19.382389,-98.998042,2016-07-25 00:14:27.150000,,
23c0818079704eb69fc0434dab185a75.16,1,19.38823,-99.003956,2016-07-01 01:59:22.649000,,
1c4989b9cb694c808b56a73c8cc543f5.16,1,19.392212,-99.011496,2016-07-01 01:59:22.649000,,
ade185499bae406e8cee46cf4d2417e1.16,1,19.389132,-98.998464,2016-07-22 22:45:51.698000,,
779ae5fe590f4782909a1f53aa7a366a.16,1,19.402893,-98.998614,2016-07-19 06:46:01.695000,,
41a56d065f044542b6bb86ea902a9f06.16,1,19.39938,-99.00132,2016-07-23 21:23:50.196000,,
2d221d94d7e0495ebef0ca0277a45022.16,1,19.399111,-99.000297,2016-07-18 04:37:24.567000,,
4fb92b7d1e1a473e8ef3647a4e0cfda5.16,1,19.399572,-99.00003,2016-07-23 22:22:44.981000,,
2d86f7ea56704f5f82d5457b781e66e2.16,1,19.400554,-98.998255,2016-07-17 05:43:31.174000,,
8e7dddfd77f14f67a518e283b7a83668.16,1,19.393932,-99.003233,2016-07-24 05:02:31.940000,,
77db4066e16449539934e026e91d2140.16,1,19.393483,-99.003716,2016-07-25 00:25:09.530000,,
8c44a24b140d470aafdb49b1400aab49.16,1,19.393845,-99.004381,2016-07-23 22:26:16.092000,,
129faf60441143ee8ac9fb6441f0d988.16,1,19.393361,-99.003193,2016-07-25 00:57:46.287000,2016-07-25 01:12:46.244000,98
88d5d9d680e641dab9a3f60d4766fc33.16,1,19.393671,-99.00189,2016-07-22 00:56:05.070000,,
18d0697ad4354672a308a6e88c4e48fe.16,1,19.393546,-99.002834,2016-07-25 00:21:27.184000,,
5d11d6aa1dad45329c4b1b98b3f869c6.16,1,19.40073,-99.004147,2016-07-24 21:37:31.243000,,
0b272464b90c4338b15232182c521dbb.16,1,19.400057,-99.002772,2016-07-24 01:42:33.463000,,
3a885dfbeaba4c9aa9143f0137d5df21.16,1,19.404333,-99.011887,2016-07-01 01:59:22.650000,,
25f067a7aa1446f982d50c027f494db3.16,1,19.394807,-99.006808,2016-07-25 00:23:57.476000,,
f2e338637ac64758bf3ab7ff7669df93.16,1,19.395244,-99.005672,2016-07-24 23:07:48.997000,,
f84092d758804b11b398b403d3191651.16,1,19.399611,-99.001859,2016-07-23 16:15:34.008000,,
7cf0143bf59442d09208b56014b8d7e6.16,1,19.401657,-99.006196,2016-07-24 22:56:54.030000,,
b47af0f412094f55b908980738dea026.16,1,19.404124,-99.010602,2016-07-01 01:59:22.651000,,
1b28264ecadb4e7b9485c409d6e8a829.16,1,19.403203,-99.009519,2016-07-23 20:08:50.684000,,
ae11596e7f9240a1b4c0872aefbf8f43.16,1,19.395117,-99.005043,2016-07-24 19:45:03.646000,,
46dfe4c4387d4795999cd75ed9041593.16,1,19.314645,-99.309844,2016-07-01 01:56:36.780000,,
c2b23a8204dc43948ecc522082fd7512.16,1,19.313535,-99.310529,2016-07-01 01:56:36.780000,,
8e3339992e414e13b50eca53f990f9fd.16,1,19.314971,-99.309703,2016-07-24 20:10:35.646000,,
d9d3795fd47a4d90a6c2be477889951c.16,1,19.31146,-99.309102,2016-07-01 01:56:36.780000,,
56daba1362164ff0ac741e5094296cc3.16,1,19.312378,-99.310892,2016-07-20 01:10:44.304000,,
4121fe2137154dcca2ff71364d639f47.16,1,19.312741,-99.3109,2016-07-20 00:27:51.927000,,
caaebaaf725c4af4844102be968aefed.16,1,19.399927,-99.167534,2016-07-23 20:49:13.479000,,
fb6ebd297c5740e08db21b2370b20b04.16,1,19.400741,-99.166083,2016-07-24 20:29:53.266000,,
bfa329523ad146bf8ed0343ee09d3b10.16,1,19.39968,-99.167037,2016-07-24 04:14:35.697000,,
6e1fa7a735264431aa6354d957961f2f.16,1,19.410634,-99.174686,2016-07-24 22:10:24.593000,,
799d0513b9f94435980072e96fc4895f.16,1,19.407996,-99.175761,2016-07-19 03:34:45.472000,,
f9ac0178262b46f680fb01f2bf539112.16,1,19.408484,-99.174274,2016-07-18 15:37:03.781000,,
796592a92eb64f439a6c3a86751fb9d5.16,1,19.413305,-99.163126,2016-07-22 21:00:51.162000,,
a57d3d0a89ec4e479407635d65450ca4.16,1,19.411575,-99.171042,2016-07-23 22:14:48.186000,,
895d23d78e13440588b1cf5a5ee088c7.16,1,19.418081,-99.164465,2016-07-24 19:43:50.991000,,
843c554b659d41788b88cca610551c98.11,1,19.409527,-99.171353,2016-07-24 23:48:18.752000,,
1c6e2a83343e41c4949c151cd01a52dc.16,1,19.412867,-99.17254,2016-07-24 21:11:14.507000,,
e97ca1201c1c440483613e86d31e54ae.16,1,19.4171,-99.165741,2016-07-23 03:01:37.477000,,
1b96c87e24ea4534970e251f9b2882d6.16,1,19.409694,-99.169181,2016-07-24 23:41:08.144000,,
27a678fc9031414a883b685f641c1e69.16,1,19.413449,-99.17162,2016-07-22 00:00:53.648000,,
5e683187661c4621b16abfd01d152cca.16,1,19.411676,-99.160338,2016-07-23 02:02:51.945000,,
38988eab9b844cd88f13ed408c4fedcb.16,1,19.417589,-99.163248,2016-07-25 00:30:30.108000,,
e1b1c72f1c8f45b8844d470523c61ee1.16,1,19.412951,-99.167586,2016-07-24 18:18:26.533000,,
e2cc57f247384e28926440a7696ee521.16,1,19.411561,-99.1661,2016-07-24 01:47:10.174000,,
d47a52f0940e4178ab4a4654735d873d.16,1,19.420739,-99.165039,2016-07-22 17:10:17.523000,,
de4424d891d348f6978bbd3e6a6e3c75.16,1,19.412263,-99.169111,2016-07-25 00:58:34.886000,2016-07-25 01:19:34.842000,104
6ceda571196742b8bc557714f8b70b6c.16,1,19.410296,-99.161966,2016-07-17 16:07:12.579000,,
c914d7df614949b19407e50d436660f2.11,1,19.410876,-99.170002,2016-07-25 00:22:52.563000,,
f27f1e49db014f5bbeb01272035bddd4.16,1,19.413881,-99.165307,2016-07-20 00:45:12.350000,,
d95ee727421b4536934bf2e53b569aa0.16,1,19.411157,-99.168873,2016-07-24 22:59:26.323000,,
ea93fbe627614d0cb3e0ca36698d5f65.16,1,19.410912,-99.157693,2016-07-24 06:38:26.578000,,
84a7b1838f864460b78e2bfe1e5ed99c.16,1,19.41205,-99.156883,2016-07-23 20:12:13.159000,,
30c8d17e28ed42f98ab50c6b4dcdab90.16,1,19.416882,-99.162516,2016-07-24 22:24:37.325000,,
66eeefa97afe43c2834cd88af8ed3150.16,1,19.411439,-99.171792,2016-07-24 22:42:11.056000,,
fc08d05133b34612843eedd621ca3337.16,1,19.408953,-99.17139,2016-07-24 16:55:07.304000,,
e29a28712d5d4e47a21ac0e5a5f41125.16,1,19.411439,-99.162279,2016-07-24 03:29:09.193000,,
cdbfd1f00be74234ad0bc6acdf2274fe.16,1,19.422719,-99.167305,2016-07-22 21:11:34.421000,,
efff5c785b4e4e20982fb59043a33f57.16,1,19.41728,-99.161032,2016-07-24 23:47:28.492000,,
cf697afd1b29491aa6f2f0dd726ad4d1.16,1,19.417163,-99.15754,2016-07-24 12:28:37.175000,,
1614f381b32f4651ad8df4aedfbeaa94.16,1,19.414098,-99.166799,2016-07-24 00:54:00.422000,,
3cf13382fa5d4ebc86ec2d84d402ad0b.16,1,19.414069,-99.163334,2016-07-25 01:02:18.452000,2016-07-25 01:17:18.412000,95
4617c8f4b6c14ceb9a1cbe87615772b7.16,1,19.422621,-99.166422,2016-07-22 01:24:53.979000,,
92269b4c260d434baf58ea78ba6a07f8.16,1,19.411677,-99.170394,2016-07-24 20:15:12.024000,,
d92785ceecd447f2b40a700287c90433.16,1,19.416429,-99.159611,2016-07-24 23:14:28.536000,,
1cacd5a28fc24f4b972c4bcde49c1b43.16,1,19.411953,-99.167852,2016-07-24 21:00:29.267000,,
3d6873827cb0417eb4ae05ddd240ab53.16,1,19.412934,-99.16626,2016-07-24 19:21:30.635000,,
1665a878d9844b64bdba1748fa7e4f47.16,1,19.419575,-99.157357,2016-07-23 16:01:31.596000,,
779fe078f2e346d0a08df72504aef6eb.16,1,19.413829,-99.158991,2016-07-22 14:25:12.129000,,
28219ebbb9bf410da2fc3cc8ec9fc6dd.16,1,19.409044,-99.157675,2016-07-22 01:44:26.256000,,
b998f0a151e94c16990d08adb5febb8b.16,1,19.418888,-99.164134,2016-07-23 22:44:07.398000,,
7d5d58b57b5642bcb7dc27c0de6d5bf5.16,1,19.409765,-99.168987,2016-07-24 23:09:18.721000,,
94855b6ecc9f4225844fe2f3195a7bc5.16,1,19.419691,-99.160655,2016-07-17 15:15:47.648000,,
cfe7d5cdb8d54b4697297fd60172fe47.16,1,19.411061,-99.172497,2016-07-24 21:45:39.686000,,
74b7628e516b4971a4ba4657affe3471.16,1,19.413443,-99.162552,2016-07-22 16:33:18.348000,,
93ce113d94e64228aba1a67ed4842b12.16,1,19.418239,-99.167667,2016-07-22 19:51:04.011000,,
9eb62f2e53374ccbab4d82da55a34f0f.16,1,19.41023,-99.163978,2016-07-22 16:11:05.504000,,
39c7fc774d7744a4a309bfe51d998977.16,1,19.41199,-99.167347,2016-07-24 17:15:48.108000,,
724af68d974f479ab4f79aa11ba4fe60.11,1,19.416413,-99.159268,2016-07-24 18:01:46.264000,,
0ae13f7fc7364949832c8fda4aed66b7.11,1,19.412771,-99.169419,2016-07-25 01:02:04.236000,2016-07-25 01:20:04.200000,56
f7283c7bc17b4e18b730f0d3a67e0885.16,1,19.413432,-99.169205,2016-07-25 00:46:58.937000,,
d90d3223fe9d49439b91e5a336f20b51.16,1,19.412603,-99.160615,2016-07-22 01:59:22.571000,,
d59dcd3f94f44f55b0958c14b74e9557.16,1,19.418919,-99.161254,2016-07-01 01:56:21.703000,,
516bd4d81b7347408131d8b2ab3276c9.16,1,19.409482,-99.166188,2016-07-23 17:23:52.720000,,
15092742072f4c8c88234e7cfb6c824e.16,1,19.411111,-99.170504,2016-07-25 00:54:38.078000,2016-07-25 01:18:38.040000,50
dde31ec8fbf44e9db6897008d75dfd05.16,1,19.41169,-99.167465,2016-07-24 22:08:29.040000,,
509a7eb857ed466782c7f16e55896530.16,1,19.417383,-99.159348,2016-07-24 17:18:44.001000,,
9dfeff43a405471b8e32d7c02b417964.16,1,19.41854,-99.162456,2016-07-24 22:52:42.026000,,
53d6173ff9b9437aadeaa15cfd759986.16,1,19.40935,-99.169778,2016-07-15 18:02:07.976000,,
25e52613e7a34d488cbedebaf3ba2903.16,1,19.410597,-99.163575,2016-07-23 16:21:19.384000,,
a11b5d56f72b498e8c11962b725b909f.16,1,19.41988,-99.167425,2016-07-25 01:03:50.823000,2016-07-25 01:18:50.787000,66
b70cb5f12da34076a48301bdc8f91fc4.16,1,19.413893,-99.168984,2016-07-24 21:15:54.458000,,
a911b26ce5fa49719fa4c0a0c05bc7bb.12,1,19.419052,-99.163051,2016-07-24 21:55:44.288000,,
5ad424b0be1e44ecb429ee225a0374db.16,1,19.413043,-99.167946,2016-07-24 21:47:48.901000,,
f14d088a827e4ba2bd51011e6335807e.16,1,19.418587,-99.166164,2016-07-25 00:26:52.180000,,
02a4b5679e58469984f662d4ac9ad286.16,1,19.417731,-99.16224,2016-07-23 01:10:13.344000,,
cbcf7802f95845cfbd08ab42cfff5de5.16,1,19.417386,-99.157099,2016-07-24 04:35:23.067000,,
6db2a3234f4042d78552c00f82d051bd.16,1,19.411366,-99.167862,2016-07-24 00:07:53.862000,,
b27b221275944adfb342028429147bb3.16,1,19.411412,-99.158353,2016-07-01 01:56:21.703000,,
6b32a9ff8d044e0381ec58967f2ca00e.16,1,19.41159,-99.157866,2016-07-20 05:19:16.900000,,
a7f51372a70e4ca38510ea016036d01e.16,1,19.41923,-99.159861,2016-07-24 21:15:46.711000,,
b56f4f20c0ea4623bcfa99e69091863c.16,1,19.409533,-99.170369,2016-07-19 13:24:59.858000,,
2ba6d4bf81634f2f93b8e42338d82156.16,1,19.408195,-99.171844,2016-07-23 23:28:04.497000,,
57026be6ab424dfc94efe6f7d11e1aa6.16,1,19.409433,-99.167393,2016-07-23 13:32:16.286000,,
57dd5e6213f94f5196ded47a2da21cdc.16,1,19.411423,-99.159142,2016-07-21 18:31:31.968000,,
51c9472f35b442dc82035784b59ca35c.16,1,19.420241,-99.157949,2016-07-23 21:28:41.145000,,
6b13a39dd32a46eda1f0030e04ff0fe3.16,1,19.413831,-99.165726,2016-07-01 01:56:21.703000,,
a21d1afaecc44fe38edc799d30e3db4e.16,1,19.416335,-99.162339,2016-07-21 21:21:07.353000,,
69ebb003b9e640658dd58cfeac8fcccb.16,1,19.408456,-99.172413,2016-07-22 17:43:43.190000,,
3d32a8c220394e5da29f368a5b3d7f7b.16,1,19.411524,-99.158504,2016-07-21 23:00:08.299000,,
cb0328acfc974e778ada094b8c8b675d.16,1,19.417607,-99.164064,2016-07-24 20:08:48.483000,,
8ae4eea29b164554b43072f5eb7aede0.16,1,19.419836,-99.156895,2016-07-01 01:56:21.702000,,
2486a86270c24b6cb7d29887589f2f8b.16,1,19.41693,-99.166599,2016-07-20 19:05:47.314000,,
19157c2a49994fa3a2eb4727ab4fe29c.16,1,19.414228,-99.158589,2016-07-21 12:45:38.605000,,
f4b95fd3d0934d2facf4d33888893c72.16,1,19.409863,-99.165874,2016-07-23 17:14:36.640000,,
6a9f558e10174e309e24eceacaa3d0dd.16,1,19.410211,-99.172552,2016-07-24 21:06:22.888000,,
6686fcf443134259a7deb6ae8f2e46a4.16,1,19.412718,-99.163062,2016-07-23 17:11:11.466000,,
ae86b54913664a1f8a7a018b8f42a9e9.16,1,19.416614,-99.157982,2016-07-23 02:43:35.390000,,
4c5555d671644b0f9fd658b5ff4f9320.16,1,19.419468,-99.166275,2016-07-24 21:18:18.279000,,
f00a58b65b3c4e839190e1f2b33ba80c.16,1,19.408539,-99.167851,2016-07-23 01:44:20.718000,,
0c3ac8a6d1c84efe941a790dc4bd0269.16,1,19.41299,-99.171445,2016-07-24 03:30:01.352000,,
bd1afd5ed1a14721b40ba11f2dde8e1d.16,1,19.412052,-99.169411,2016-07-25 00:22:25.072000,,
78ad254e1086465d90c74c05b25a0317.16,1,19.409869,-99.173078,2016-07-23 00:20:34.676000,,
f37e5fcd857d45cea0b76f1b3f93a72f.16,1,19.412699,-99.172713,2016-07-24 21:11:49.231000,,
e7d46efc033c418392b8e005efaf39d6.16,1,19.414438,-99.161864,2016-07-23 21:40:54.578000,,
e0d824bd2e2f486b85ed17a423e07cd6.16,1,19.418237,-99.167003,2016-07-22 20:44:34.311000,,
50b13a126e5347f98da2fe11ff3f37d7.16,1,19.40984,-99.165223,2016-07-24 18:53:15.491000,,
9f053336b2b7445a8439583574c24eff.16,1,19.408534,-99.169713,2016-07-24 17:16:41.504000,,
1b2864f7438e493c912a3927d0e19698.16,1,19.419528,-99.161193,2016-07-18 18:39:35.066000,,
eaf28ae04122424ea36f2b16a457e1ae.16,1,19.413707,-99.17216,2016-07-23 01:22:34.541000,,
2f03199ccb0143969ed575ec41ff789b.16,1,19.408953,-99.1727,2016-07-24 21:02:32.410000,,
ec84926642bf458f96a1b402dfe0e5a1.16,1,19.411802,-99.172199,2016-07-24 07:01:40.089000,,
bb89a3b0e8134d3f92bc0253da742eb5.16,1,19.412143,-99.173201,2016-07-24 22:32:16.448000,,
fabcb408259f488db6b976a87ee96a0a.16,1,19.417051,-99.164529,2016-07-23 02:49:35.468000,,
abc1aeb729c540c4975c157ef646ab95.16,1,19.410495,-99.17295,2016-07-24 16:21:36.182000,,
53d1a346655447b787f7db48d47bab88.16,1,19.416933,-99.159652,2016-07-24 02:06:11.322000,,
8f932d0454294ac7bdb4e2e639a0cc94.16,1,19.418082,-99.159838,2016-07-24 01:22:50.245000,,
f8c1c45f18614db3a6b155473eed21af.11,1,19.411483,-99.169593,2016-07-25 01:17:04.345000,2016-07-25 01:20:04.303000,23
f78256edb02e48d99a92c0f929b02bba.16,1,19.412636,-99.170711,2016-07-20 17:43:30.007000,,
445d47e509d146f3b6507d220d0bfdc1.16,1,19.417225,-99.165169,2016-07-24 12:43:58.841000,,
24c32b0ca7f54d9290222c0046d6e1bf.12,1,19.420227,-99.159077,2016-07-23 16:05:28.045000,,
c67402db341b49298bde8745f9bb3b1e.16,1,19.408446,-99.161367,2016-07-25 01:10:11.963000,2016-07-25 01:19:11.929000,111
5860b653883747c194abe092d459d381.16,1,19.416983,-99.16534,2016-07-24 23:06:32.512000,,
e0770a8726d9444d90d98b4ee8c689d8.16,1,19.419227,-99.159181,2016-07-23 22:04:11.889000,,
18bdaba03b544472b75317061a11a6d3.16,1,19.418507,-99.158619,2016-07-25 00:17:22.686000,,
0455a200fd7f47d3b793c90d05ef8c53.16,1,19.411312,-99.159644,2016-07-23 14:30:08.056000,,
ce9fd4fd989f421b9284119dd20d17f1.16,1,19.415665,-99.15976,2016-07-23 19:28:08.236000,,
eae7c81c97f140cfb02a1ad4e6e76caa.16,1,19.417354,-99.16056,2016-07-24 23:58:46.614000,,
9c4dff8437e14e88afa02b84fd6f5cb8.16,1,19.413121,-99.172654,2016-07-24 21:12:30.880000,,
24feadcfba114baf9c228956aa1b2b1d.16,1,19.410158,-99.162774,2016-07-24 21:42:18.248000,,
1ae8a0ea00a44d47ba4a77856035c4c1.16,1,19.418014,-99.161895,2016-07-23 01:10:31.382000,,
bea2ec74bfff4178aa7acfd647579266.11,1,19.418401,-99.159179,2016-07-24 03:19:54.038000,,
90e761c49ec34a2fac1be03323c13430.16,1,19.40937,-99.171099,2016-07-16 21:15:19.906000,,
d5548fd888c5465d866a5ed3168621b2.16,1,19.413902,-99.160223,2016-07-23 19:56:57.701000,,
f52b542aa3c449619bb6e9c69093b5fe.16,1,19.412908,-99.160488,2016-07-21 01:10:43.031000,,
1d6117ea2e894c52916ab9f20aae261f.16,1,19.415807,-99.159264,2016-07-23 22:38:30.547000,,
d22d544f87de426aaa5ba106d9cc13d6.16,1,19.408915,-99.163572,2016-07-21 17:45:09.074000,,
f28f98da80c54b5ba33efb9fec1e5855.16,1,19.409358,-99.161414,2016-07-25 00:27:00.518000,,
d8c0a12c68b34095838fc4c801c9d8e0.16,1,19.408955,-99.160306,2016-07-24 16:51:56.114000,,
8a19aea5bae24b74877a937f6a046f78.16,1,19.41943,-99.164065,2016-07-25 00:29:17.696000,,
8552e14a7a7f480f8ee8a4aa31be2272.11,1,19.417788,-99.16189,2016-07-23 01:09:26.484000,,
f12f971ed13a4e9da946d370f40c920f.16,1,19.414575,-99.167363,2016-07-22 22:38:42.570000,,
a819a0dd7a8048bba829d3b6adb18d42.16,1,19.419355,-99.162084,2016-07-23 03:44:23.181000,,
f1da4719acb747d9840a23792b3e7d05.16,1,19.413586,-99.161932,2016-07-24 22:40:05.928000,,
76b05c560f4441b1af4731bb84abd239.16,1,19.413541,-99.158669,2016-07-22 05:13:37.036000,,
6ac9c41085724775bcc0a8892f45c94e.11,1,19.408699,-99.169845,2016-07-18 16:26:20.932000,,
8e832ac5cc924e37ada7458db9bed625.11,1,19.418152,-99.160453,2016-07-24 20:01:28.331000,,
0a760380659f4e45b9e7c202a56c137b.16,1,19.410512,-99.170544,2016-07-24 23:32:14.420000,,
999fdcaf364e432e9eb3180031a7fb31.16,1,19.418439,-99.157919,2016-07-24 19:24:19.490000,,
18183b2637f2410a97b56e53a828c360.16,1,19.412774,-99.160921,2016-07-24 21:19:59.565000,,
c995dd1594524aa68812faac769eba0e.16,1,19.410929,-99.168168,2016-07-25 00:56:56.584000,2016-07-25 01:17:56.537000,84
c1ca9bdae82a41f78e14964e06777ffe.16,1,19.412917,-99.165209,2016-07-24 19:22:04.603000,,
909d6678c5dd4fa59814812ff50ed2c1.16,1,19.411301,-99.163088,2016-07-24 21:26:50.354000,,
83a455ab314d47ada1f749d685d27c52.16,1,19.409759,-99.159713,2016-07-24 21:21:46.883000,,
ca938874ffa94577a5e8283500adc3ac.16,1,19.419269,-99.1576,2016-07-22 02:04:07.993000,,
a5d1dcdfcffb44bfb9a1f4c29951d8bb.16,1,19.421063,-99.165489,2016-07-21 22:04:52.986000,,
6fa7195095e84a36b6e355704839ed56.16,1,19.43014,-99.159492,2016-07-23 19:10:50.858000,,
2f3c6dd639c14f56b4b166e0665b2257.16,1,19.430334,-99.160298,2016-07-21 22:18:05.221000,,
9e44e51f230147b481ad174656c7031a.16,1,19.429392,-99.161471,2016-07-24 20:47:54.147000,,
75a1c592f45549c1835591f5cb653be5.16,1,19.428588,-99.162141,2016-07-24 23:44:02.184000,,
40809207607a41768c71e650956e9222.16,1,19.431711,-99.161331,2016-07-22 18:27:44.289000,,
194809debdec4eb9b837e14eeb0eab9b.11,1,19.430136,-99.161378,2016-07-24 20:50:39.135000,,
33a82e08222c4b9b98ec924647218c3f.16,1,19.427314,-99.164611,2016-07-24 22:17:57.197000,,
88fd4987aabc4c1b82b2e5661fe6ff4c.16,1,19.428389,-99.163728,2016-07-25 00:14:06.047000,,
a24af3854bc34fc4ad0d61fdc938495b.16,1,19.427695,-99.161432,2016-07-24 17:36:16.381000,,
c7c2896450ae403bbcb74c308c3bd87d.16,1,19.428083,-99.164266,2016-07-24 00:33:12.812000,,
382429f6fe2a49cca665a97ca3e5dcde.16,1,19.43078,-99.160042,2016-07-23 18:04:44.233000,,
57360a388e6b49cd8642e77dfc8403c6.16,1,19.426421,-99.164638,2016-07-24 19:43:28.518000,,
b48fe7dca70b4c83b264684f79be5362.16,1,19.426752,-99.160075,2016-07-21 00:59:23.392000,,
6f1ca3095e174d54be190756ff89efa5.16,1,19.42811,-99.159628,2016-07-23 00:34:12.385000,,
e42e9e6fcdfa477ebb612cce3408d94c.16,1,19.428502,-99.164868,2016-07-24 20:17:28.615000,,
9fa226d0b1664e308044ad646c93c7b1.16,1,19.427155,-99.162956,2016-07-24 15:58:38.796000,,
38fb1ba801ed4994935925a48aa46ccd.16,1,19.430036,-99.16214,2016-07-24 05:35:39.163000,,
dff1f1ef72ad44378dbe057e6a97e85d.16,1,19.426902,-99.160765,2016-07-20 06:02:24.325000,,
a3d5b43178174dfc81d05e1cd4d79d2a.16,1,19.42949,-99.162023,2016-07-24 18:47:50.215000,,
ccc52f9859bd4c738cde8b074d3e0ef8.16,1,19.430688,-99.160233,2016-07-24 06:46:58.306000,,
bab2bf2c632d4387884449537c496081.16,1,19.428473,-99.159905,2016-07-24 03:51:55.965000,,
35b69522bdef42a085802e1708c609aa.16,1,19.427499,-99.164548,2016-07-24 22:25:44.152000,,
ca75c59138dd45e79e8fd8d1e7bd563a.16,1,19.426739,-99.162499,2016-07-21 16:25:24.813000,,
4f84f597d89849d09fda050969f788c2.16,1,19.427572,-99.161642,2016-07-22 17:55:33.826000,,
b9e89fec3003405a87b7ea478246c2cb.16,1,19.427298,-99.161345,2016-07-22 14:06:38.305000,,
1e5e1f750c904ec8b492bf128cf169ba.16,1,19.429853,-99.159945,2016-07-24 19:50:40.860000,,
b4ca893a281949cabe12298a9c7b4d78.16,1,19.431974,-99.16037,2016-07-18 19:36:14.717000,,
ff12177888aa491bbb38e6b932403ff6.16,1,19.427512,-99.159501,2016-07-22 23:22:47.070000,,
c106e9a5acf24202b98129aff0cf2508.11,1,19.426591,-99.164181,2016-07-25 00:50:44.900000,2016-07-25 01:17:44.769000,27
d4e796dcc9af43bfba92a253f34736bb.16,1,19.428921,-99.161452,2016-07-24 23:18:12.936000,,
5154c6d5a63244e0a41cf2c0c92c100c.16,1,19.427226,-99.162503,2016-07-24 00:33:23.153000,,
ac2b8fe6b1a64669977dc6f3395e955d.16,1,19.431798,-99.161665,2016-07-22 18:27:55.863000,,
3e96a80329b94d02aba705f65ea16604.16,1,19.428241,-99.160677,2016-07-24 05:14:30.498000,,
9a1c8e3c5714494891495cdebf9b89f4.16,1,19.428318,-99.162292,2016-07-24 23:56:03.415000,,
f8723813e54f46d88ae7dcb2ec327408.16,1,19.407264,-99.141073,2016-07-18 01:07:49.856000,,
b7b462b382d041489a25d830134cddcd.16,1,19.398894,-99.134926,2016-07-22 01:14:52.778000,,
f2cf3f63fdd5462b9ce3a35b103f5fac.16,1,19.406764,-99.144568,2016-07-20 04:33:11.005000,,
8125190397574c48aab992dec05f7486.16,1,19.404191,-99.13665,2016-07-18 19:06:25.128000,,
131c914371e748ae992e693169b17a6e.16,1,19.414537,-99.143774,2016-07-23 01:57:32.797000,,
4a24917437df4a858427021e3d1db3f2.16,1,19.39876,-99.143549,2016-07-18 21:03:32.258000,,
3cba2a2a2ea247319708ef51978f7687.16,1,19.399688,-99.145092,2016-07-12 18:10:26.155000,,
38c8ad1304434b259ecdf5b06ee0018b.16,1,19.398923,-99.141282,2016-07-24 05:15:23.507000,,
466b0e38b8954d58973994e683e1989f.16,1,19.414762,-99.145041,2016-07-22 03:38:10.707000,,
e97375bb9bd348b4b096c2fafeddb27c.16,1,19.40268,-99.138088,2016-07-24 05:24:54.687000,,
c98da7307b1846beac1ff568aafecd4b.16,1,19.407113,-99.143372,2016-07-24 19:06:44.778000,,
b9eb532073074035a100ef20fe6b02fe.16,1,19.412029,-99.143921,2016-07-01 01:56:21.706000,,
97317011f8794f4aabb3d1885e1b4f2b.16,1,19.413314,-99.14444,2016-07-21 01:45:14.284000,,
0a85168a42384ed095f95fde59273404.16,1,19.406281,-99.136277,2016-07-24 07:29:39.515000,,
6d23b87f595b4b9b9e9a37c6bfb39ba5.16,1,19.405949,-99.144644,2016-07-21 01:29:09.564000,,
e94233f5a39d4244852dbd18d60b603a.16,1,19.404283,-99.14514,2016-07-24 14:41:01.173000,,
e618a3e3037d4ec391dc8131108f7319.16,1,19.408387,-99.143035,2016-07-25 00:43:23.193000,,
48bfa46ef76f46198c383ef9a2176ac2.16,1,19.410813,-99.144953,2016-07-23 04:32:13.505000,,
79c78558308a4ad591a9c05f160b3c24.16,1,19.411499,-99.143917,2016-07-20 14:31:22.795000,,
354d45dd89a740a6acea90a98d884490.16,1,19.410469,-99.144724,2016-07-18 19:13:19.417000,,
edcf4818d5344b339f0eb54bd2dc4630.16,1,19.406662,-99.143774,2016-07-21 02:36:37.553000,,
eee3facfc1c84cf1abb3a2e1df07a606.16,1,19.406663,-99.135791,2016-07-20 02:53:51.466000,,
c33958e637904d88a98fd0b03fe9ca15.16,1,19.401993,-99.143737,2016-07-25 00:25:17.266000,,
379ebff2ff24499b8907febf7b0b633a.16,1,19.400796,-99.136918,2016-07-23 20:43:41.567000,,
d23f847369984e298be3ff5cb5796167.16,1,19.398252,-99.134604,2016-07-24 22:27:40.142000,,
4225ed5bcf47477d93f13dc4232d489e.16,1,19.400337,-99.135537,2016-07-23 17:57:34.637000,,
5bed862f894640fcb16c308672ff95af.16,1,19.398379,-99.142149,2016-07-24 22:31:32.584000,,
0b67cb43f353475098e4e208745655a8.16,1,19.401321,-99.13483,2016-07-25 00:11:55.215000,,
ed6201c87d2241e58ca6d0ceb084bed8.16,1,19.410787,-99.144483,2016-07-20 15:24:16.769000,,
c12f9760f98441c3ad2c88a3b111636c.16,1,19.403832,-99.139969,2016-07-21 20:07:20.256000,,
f8243cbb1b9043bd89fd2bd8ad951f74.16,1,19.405347,-99.142199,2016-07-24 14:28:57.668000,,
2c14df012cfe4917978e63dc9fe5a118.16,1,19.413287,-99.143828,2016-07-20 03:07:01.402000,,
7ddebe6fa4b844dba4d24460bcee4b7b.16,1,19.413113,-99.143404,2016-07-24 03:12:16.061000,,
d666cf53a16e43119ae76aa8e6a41d06.16,1,19.398315,-99.14165,2016-07-25 00:19:03.131000,,
10dd7318e0e74c43a8e470740ffa8bca.16,1,19.407835,-99.143321,2016-07-23 19:42:40.799000,,
95926fe25dfa4d0186fc0d7163fd25f4.16,1,19.404123,-99.136155,2016-07-20 13:48:15.241000,,
3d97fd44a37c4a248b0fc014707f16de.16,1,19.413956,-99.143799,2016-07-24 18:04:49.931000,,
e3795a39342d49b4a01f3e770032d051.16,1,19.401819,-99.151159,2016-07-24 19:17:18.801000,,
841ed129699c4e21885b26092df42e37.16,1,19.406639,-99.165233,2016-07-21 22:42:10.808000,,
a8ea1dac3ef1417185e8954370876fdc.16,1,19.408158,-99.154836,2016-07-23 22:27:05.406000,,
618829f19e424e2ebb4064a46e51f077.16,1,19.405372,-99.155147,2016-07-22 06:54:52.056000,,
e650171f17cf44389df91888ac935b54.16,1,19.400292,-99.15644,2016-07-24 23:34:16.560000,,
172dea9cb63c4f78b23ec7358ab794e0.16,1,19.406983,-99.155447,2016-07-24 06:37:44.006000,,
6a712f8ec1ff4638b230c251e691b5e5.16,1,19.40383,-99.152788,2016-07-24 20:07:11.481000,,
7cde7a3808e2483b8522e899bf73b0d7.16,1,19.407194,-99.153799,2016-07-24 23:27:20.969000,,
50388758dcd0462c90e5196520136316.16,1,19.399839,-99.149628,2016-07-24 20:30:38.204000,,
563c0635092d4312995a16bfc25e5f10.16,1,19.407997,-99.154725,2016-07-23 22:26:48.680000,,
bb7df6ea62544378be3e389a95f14701.16,1,19.406133,-99.156356,2016-07-01 01:56:21.699000,,
a82ad6119014477dacd40ee45610c632.11,1,19.408754,-99.154558,2016-07-21 18:09:35.208000,,
4acc5c5b92f944f0b849ba801ad931b2.16,1,19.408712,-99.153534,2016-07-23 13:01:15.688000,,
0767cb9169094bec91ac48e9e0d05a32.16,1,19.407777,-99.152608,2016-07-23 02:38:00.028000,,
560446928c2c48e58650a5a81be83c39.16,1,19.398402,-99.154182,2016-07-24 01:17:48.534000,,
385b8117f4124d249395b265e9bf5751.16,1,19.406005,-99.162768,2016-07-24 19:56:35.176000,,
4ef9edcd6aae417b8efc6a5734a0aa7a.16,1,19.405255,-99.165628,2016-07-25 00:38:01.384000,,
f00475e6bc1f4ec18214620dd3cecf96.16,1,19.407664,-99.155483,2016-07-24 17:23:59.478000,,
197c666b3c7b4817acffaa4bc80df96a.16,1,19.398911,-99.147874,2016-07-23 01:35:36.005000,,
c63d4615eb334233ae7761c631c737b4.16,1,19.40695,-99.154188,2016-07-24 03:49:49.958000,,
b62804c828f64a8c87ff96461183a43d.16,1,19.407701,-99.151624,2016-07-23 18:51:43.278000,,
43491dcf1b934c4a9dfae0477002d2d9.16,1,19.408428,-99.15266,2016-07-22 19:43:20.790000,,
ece27e12e3b643e594e85caa382a3203.16,1,19.407472,-99.156952,2016-07-01 01:56:21.699000,,
6d882c4f802d4b98be1a4a80f04df27c.16,1,19.398415,-99.14883,2016-07-16 23:47:37.635000,,
01eac9f7327245edb586d107c6348ad0.16,1,19.399653,-99.146473,2016-07-16 22:48:29.383000,,
157347f517e24007bcbe4a5873d0542f.16,1,19.406284,-99.162517,2016-07-23 15:06:15.090000,,
127e84e334e941168947060ad0c0e6f7.16,1,19.398007,-99.148787,2016-07-22 20:03:38.390000,,
4654b193ca3647bc965f7ea1cb27139a.16,1,19.400223,-99.149819,2016-07-25 00:48:05.456000,2016-07-25 01:18:05.409000,111
31d83c2caaaa4c5391f9c1e5c3257e04.16,1,19.408472,-99.152095,2016-07-23 09:29:55.371000,,
bab1ea555d864a229c0d3ade5d4257b9.16,1,19.397287,-99.154066,2016-07-23 01:20:56.775000,,
486c106c4205415f96198050418f0789.16,1,19.400406,-99.149326,2016-07-25 00:25:11.604000,,
3f7550e771864d149eef371bf3aa4097.16,1,19.400065,-99.150415,2016-07-24 00:28:38.910000,,
61a52c27b2d5494ca9e57d72ff8e336c.16,1,19.40557,-99.159743,2016-07-23 21:35:14.211000,,
0f31d244bb2d4f21ad0c935b1df0ca66.16,1,19.406278,-99.155333,2016-07-18 20:40:50.652000,,
47b6333fa31a4703bed1252b2b3f0183.16,1,19.404771,-99.160931,2016-07-22 22:46:04.365000,,
dbc956ca2bab47c28c6ae035e8cded05.16,1,19.398073,-99.149493,2016-07-23 03:16:38.478000,,
16dab99f6c6c4ccaba49bef2ab9c0088.16,1,19.403376,-99.155628,2016-07-25 00:36:28.513000,,
8c63c8259731453583dbc4441c8291de.16,1,19.406839,-99.155048,2016-07-24 13:26:16.596000,,
dfbd961735d643ac9ff52e629f4de6d3.16,1,19.408574,-99.156209,2016-07-25 00:52:53.270000,2016-07-25 01:19:53.230000,41
e71dffa0db5c460fa5d909cdb9f6375e.16,1,19.40814,-99.152376,2016-07-23 00:50:30.934000,,
26c3185aa5ea442891cf7a014a1fd88f.16,1,19.403773,-99.153294,2016-07-24 15:11:48.667000,,
3c86d0d4173147ea936426cb75d1322b.16,1,19.405039,-99.167712,2016-07-24 22:11:26.059000,,
8fe2ac2f0af64cbb96bc12c16dc825d5.16,1,19.406402,-99.154864,2016-07-22 01:52:00.561000,,
cdabb82c04ae4669a60c0c5d8a81f5e7.16,1,19.406612,-99.151811,2016-07-25 00:49:08.520000,2016-07-25 01:19:08.401000,52
3cb462871ec6423fb46551c663a52517.16,1,19.403359,-99.165645,2016-07-24 16:45:40.898000,,
3d5161329f504d699ab7d7720c3d4363.16,1,19.408493,-99.155853,2016-07-24 23:27:15.914000,,
8bbb18c9a40a4b9280dcb2c26d1b9c70.16,1,19.402839,-99.154573,2016-07-25 01:15:21.108000,2016-07-25 01:18:21.066000,41
0be283e265964bb08ef69cec51f02be7.16,1,19.405315,-99.167633,2016-07-23 21:58:16.107000,,
a4089caa09874b7cb02f2199851b13d9.16,1,19.406082,-99.167156,2016-07-24 12:25:02.247000,,
baa2ff2eb00b4f54ae673ed198a73d28.16,1,19.408036,-99.153463,2016-07-23 19:02:08.285000,,
6aa40aba98f645709219b4c39623acea.16,1,19.406665,-99.15692,2016-07-20 06:19:29.081000,,
6a85ccfe0efb4854bd0da9fa75e02c2f.16,1,19.398949,-99.151181,2016-07-19 03:40:05.064000,,
ee07688ea8fe48bca5818e4cc1eb3bee.16,1,19.399983,-99.151499,2016-07-17 02:46:20.390000,,
67462e6a2c7c42389ee6fc3ee7dcdb4d.16,1,19.400624,-99.148434,2016-07-24 01:22:24.029000,,
b2da13c12dfd4bfc8173a9c3bcdfe00b.16,1,19.402139,-99.145673,2016-07-22 03:46:18.312000,,
1936160ec47542709ca86ae50c963da2.16,1,19.405551,-99.149838,2016-07-21 01:55:52.317000,,
69e48bdc499a4b449d3f079b5a14a025.16,1,19.406005,-99.146978,2016-07-24 06:35:35.632000,,
4f4be2d2266b4271b244923439f2a78b.16,1,19.404677,-99.149618,2016-07-24 03:15:13.198000,,
7d1c9c8c4f14419eb738d0f2f412fa6a.16,1,19.405921,-99.149766,2016-07-21 06:12:03.525000,,
f036c07f779247abb53c64d6bacce653.16,1,19.4043,-99.14721,2016-07-01 01:56:21.700000,,
466ed22920bc4b9b9d7e4e7e46b83246.16,1,19.406786,-99.14859,2016-07-12 08:12:18.113000,,
f2e2712de2bb4a409d3365ac1cd8987b.16,1,19.407173,-99.151008,2016-07-16 17:31:43.921000,,
54eca33ef002480d80a9bdc3976752a2.16,1,19.408236,-99.149079,2016-07-24 14:30:29.816000,,
7937e2323ea644e99399117bd1bc90f7.16,1,19.411771,-99.148205,2016-07-01 01:56:21.703000,,
2a32486dc35c49a89997827f28d2d110.16,1,19.406726,-99.149858,2016-07-22 14:04:36.841000,,
935385bd5a84483e913db9810496c7f2.16,1,19.408235,-99.151063,2016-07-23 04:23:40.707000,,
efebb8099bd34ea3bccd4271ace0ed39.16,1,19.411132,-99.147102,2016-07-21 00:32:48.254000,,
8fa5ce2290364212a6745a564dca7c75.16,1,19.409173,-99.146779,2016-07-21 04:03:08.357000,,
f247dd2ca4244d27918ae9a1ae17693f.16,1,19.410662,-99.145775,2016-07-22 01:49:29.842000,,
19d0ea1955d3405599638818d0048738.16,1,19.409797,-99.148166,2016-07-01 01:56:21.703000,,
3c33dd0062564ad0aa4643f8be4f8a1c.16,1,19.413548,-99.145857,2016-07-23 21:40:34.629000,,
cf3dec800d414e0abb4e6f70a569cbd9.16,1,19.410155,-99.153137,2016-07-22 20:14:13.334000,,
641df6c3b26b48c6ae00ee2175037c7d.16,1,19.412628,-99.148129,2016-07-23 01:53:33.995000,,
385956d07d2848aba80f615c3b8ffa5b.16,1,19.409838,-99.14896,2016-07-23 14:34:58.106000,,
e86ec006e22a47428ba1c913e5218efb.16,1,19.412599,-99.147579,2016-07-24 20:08:35.437000,,
da796c21e7934342aff8df2dcfc1fd19.16,1,19.414406,-99.146862,2016-07-01 01:56:21.703000,,
45ddf878b33042a0b5484ad9d5b0fca3.16,1,19.411505,-99.153049,2016-07-22 13:02:26.650000,,
2c51a6c917534ebbb2f52332b0476c66.16,1,19.409992,-99.149283,2016-07-22 20:48:18.172000,,
73a54b7407e44974b86687230b2925f8.16,1,19.413296,-99.14764,2016-07-20 18:59:22.490000,,
e23fe215464d46e7bff5483465e78e83.16,1,19.409666,-99.152192,2016-07-01 01:56:21.704000,,
0032962c88014377a700ab91cc00f29c.16,1,19.411371,-99.15119,2016-07-22 13:39:31.966000,,
9f2f6f12e77741bcabd16879d12c16ed.16,1,19.40934,-99.149428,2016-07-19 01:49:11.187000,,
fa02aa388e9c428dae0801a53a01d843.16,1,19.414328,-99.148526,2016-07-21 23:39:05.579000,,
bb6cb729827148c489beb70b1b4fc933.16,1,19.410894,-99.151816,2016-07-22 13:40:54.156000,,
7a2186ad617e4f2a8eecad724f70a261.16,1,19.413098,-99.148112,2016-07-23 17:20:24.140000,,
5b4e1620f51b4e458a8dbc42e7d443d2.16,1,19.409133,-99.153107,2016-07-20 18:31:56.050000,,
3e3263d990694120ad3ceac634dacb32.16,1,19.414097,-99.146752,2016-07-19 02:19:03.114000,,
9e189d5bb005447d9660fb60efe1554b.16,1,19.411062,-99.152245,2016-07-11 12:43:42.414000,,
0b008d9cb8dc43f3891e953449a5b489.16,1,19.412857,-99.148386,2016-07-21 19:05:43.477000,,
8b4e18e9d08f475fbc2d05be998a4e66.16,1,19.410524,-99.154244,2016-07-23 18:58:42.073000,,
cff294cf7998466b89461ba6779c704e.16,1,19.409091,-99.155671,2016-07-24 22:55:01.577000,,
af89194c966545518d69e79e9bb5e99b.16,1,19.414428,-99.154835,2016-07-25 00:48:49.445000,2016-07-25 01:18:49.361000,27
f3819faf479a4456b5d13175da5f7462.16,1,19.413926,-99.152639,2016-07-24 03:52:46.799000,,
48b2c3ba97ac46648cabfd1066a93d81.16,1,19.410302,-99.154722,2016-07-23 18:53:45.483000,,
d5f2c9e444f34a61a7b816f50e9fa010.16,1,19.410629,-99.15634,2016-07-22 21:06:44.975000,,
f1083f7edbe14006972ff1190e4e389e.16,1,19.40939,-99.153956,2016-07-24 23:33:29.996000,,
d89bb17f396846fca339de80a1a844f7.16,1,19.413602,-99.155904,2016-07-24 05:37:39.810000,,
a9707d701ad0467b9aeae313e9377165.16,1,19.409252,-99.155184,2016-07-23 22:43:19.905000,,
7dbe88f8d71c41b09f7180d3c0fd020d.16,1,19.41051,-99.155486,2016-07-22 17:15:33.162000,,
3b571bfe4b3c4f2baaf4645e0bfa17a3.16,1,19.409575,-99.154085,2016-07-24 20:39:06.918000,,
daab06625a164a0fb3a27aeb82d8ef94.16,1,19.413198,-99.154817,2016-07-24 22:16:30.748000,,
4da32fce0399488e9b30619784e1c705.16,1,19.413605,-99.141138,2016-07-21 00:54:27.461000,,
fb4ff14b6ba74741bd83ba172b8f3440.16,1,19.414502,-99.141309,2016-07-22 05:13:22.814000,,
93e13249ad7346cea105e47f2b97fc72.16,1,19.412858,-99.14133,2016-07-01 01:56:21.706000,,
ee89cf7e05ba4daaac7a2853eb79c2a9.16,1,19.41327,-99.135429,2016-07-01 01:56:21.706000,,
3b1c149be17143caaa1ee2064d49cfe7.16,1,19.415388,-99.137736,2016-07-22 17:47:23.648000,,
a4becfe8657245379a70e4d99da81612.16,1,19.414476,-99.135421,2016-07-24 23:03:59.986000,,
e4d127f15ec04db0af4b9643265eccaa.16,1,19.409941,-99.136939,2016-07-24 03:00:19.560000,,
45f7e5c9278d4bb18ad1439ccec5bb60.16,1,19.414321,-99.138868,2016-07-25 01:02:32.307000,2016-07-25 01:20:32.241000,111
c39b26b6f9974ec2b9d0341b0e44c152.16,1,19.413872,-99.135953,2016-07-20 21:59:19.457000,,
2f4ba3055c6d4eee800ae0df61a0f6fc.16,1,19.411916,-99.141947,2016-07-22 04:22:18.470000,,
0a46c10b30704364a8fcefa3bd44a9bc.16,1,19.414656,-99.135055,2016-07-24 07:20:14.353000,,
04562537d49644c18cfe0f763d078989.16,1,19.411156,-99.141842,2016-07-14 02:45:23.772000,,
22b9211452224928b9f43da368cbcede.16,1,19.409997,-99.138441,2016-07-22 21:23:38.032000,,
a813ebecc6c24c868a8666f34c9fb4f0.16,1,19.415178,-99.135258,2016-07-24 18:13:02.182000,,
